$GPGGA,103419.000,3027.7600,N,11424.4701,E,1,09,1.0,29.6,M,-13.6,M,,0000*49
$GPGGA,103420.000,3027.7600,N,11424.4700,E,1,09,1.0,29.6,M,-13.6,M,,0000*42
$GPGGA,103421.000,3027.7600,N,11424.4700,E,1,09,1.0,29.6,M,-13.6,M,,0000*43
$GPGGA,103422.000,3027.7600,N,11424.4700,E,1,09,1.0,29.6,M,-13.6,M,,0000*40
$GPGGA,103423.000,3027.7598,N,11424.4699,E,1,09,1.0,29.8,M,-13.6,M,,0000*4C
$GPGGA,103424.000,3027.7597,N,11424.4699,E,1,08,1.2,29.9,M,-13.6,M,,0000*46
$GPGGA,103425.000,3027.7599,N,11424.4700,E,1,08,1.2,30.0,M,-13.6,M,,0000*49
$GPGGA,103426.000,3027.7599,N,11424.4702,E,1,08,1.2,30.2,M,-13.6,M,,0000*4A
$GPGGA,103427.000,3027.7599,N,11424.4703,E,1,08,1.2,30.3,M,-13.6,M,,0000*4B
$GPGGA,103428.000,3027.7600,N,11424.4704,E,1,08,1.2,30.4,M,-13.6,M,,0000*47
$GPGGA,103429.000,3027.7601,N,11424.4705,E,1,08,1.2,30.4,M,-13.6,M,,0000*46
$GPGGA,103430.000,3027.7603,N,11424.4707,E,1,08,1.2,30.6,M,-13.6,M,,0000*4C
$GPGGA,103431.000,3027.7603,N,11424.4708,E,1,08,1.2,30.7,M,-13.6,M,,0000*43
$GPGGA,103432.000,3027.7604,N,11424.4709,E,1,08,1.2,30.8,M,-13.6,M,,0000*49
$GPGGA,103433.000,3027.7604,N,11424.4708,E,1,08,1.2,30.8,M,-13.6,M,,0000*49
$GPGGA,103434.000,3027.7604,N,11424.4707,E,1,08,1.2,30.8,M,-13.6,M,,0000*41
$GPGGA,103435.000,3027.7604,N,11424.4705,E,1,08,1.2,30.9,M,-13.6,M,,0000*43
$GPGGA,103436.000,3027.7605,N,11424.4704,E,1,08,1.2,31.0,M,-13.6,M,,0000*48
$GPGGA,103437.000,3027.7606,N,11424.4706,E,1,08,1.2,31.1,M,-13.6,M,,0000*49
$GPGGA,103438.000,3027.7607,N,11424.4709,E,1,08,1.2,31.1,M,-13.6,M,,0000*48
$GPGGA,103439.000,3027.7609,N,11424.4713,E,1,08,1.2,31.2,M,-13.6,M,,0000*4F
$GPGGA,103440.000,3027.7611,N,11424.4717,E,1,08,1.2,31.3,M,-13.6,M,,0000*4D
$GPGGA,103441.000,3027.7615,N,11424.4720,E,1,08,1.2,31.4,M,-13.6,M,,0000*4B
$GPGGA,103442.000,3027.7618,N,11424.4728,E,1,08,1.2,31.5,M,-13.6,M,,0000*4C
$GPGGA,103443.000,3027.7619,N,11424.4741,E,1,08,1.2,31.6,M,-13.6,M,,0000*40
$GPGGA,103444.000,3027.7622,N,11424.4746,E,1,08,1.2,31.8,M,-13.6,M,,0000*46
$GPGGA,103445.000,3027.7624,N,11424.4750,E,1,08,1.2,31.9,M,-13.6,M,,0000*47
$GPGGA,103446.000,3027.7626,N,11424.4752,E,1,08,1.2,32.0,M,-13.6,M,,0000*4E
$GPGGA,103447.000,3027.7628,N,11424.4755,E,1,08,1.2,32.1,M,-13.6,M,,0000*47
$GPGGA,103448.000,3027.7630,N,11424.4758,E,1,08,1.2,32.0,M,-13.6,M,,0000*4D
$GPGGA,103449.000,3027.7631,N,11424.4763,E,1,08,1.2,32.0,M,-13.6,M,,0000*45
$GPGGA,103450.000,3027.7634,N,11424.4767,E,1,08,1.2,32.0,M,-13.6,M,,0000*4C
$GPGGA,103451.000,3027.7638,N,11424.4771,E,1,08,1.2,32.1,M,-13.6,M,,0000*47
$GPGGA,103452.000,3027.7646,N,11424.4779,E,1,08,1.2,32.2,M,-13.6,M,,0000*46
$GPGGA,103453.000,3027.7654,N,11424.4789,E,1,09,1.0,32.2,M,-13.6,M,,0000*48
$GPGGA,103454.000,3027.7665,N,11424.4801,E,1,09,1.0,32.1,M,-13.6,M,,0000*41
$GPGGA,103455.000,3027.7678,N,11424.4818,E,1,09,1.0,31.6,M,-13.6,M,,0000*40
$GPGGA,103456.000,3027.7694,N,11424.4831,E,1,09,1.0,31.3,M,-13.6,M,,0000*4F
$GPGGA,103457.000,3027.7711,N,11424.4843,E,1,09,1.0,31.2,M,-13.6,M,,0000*46
$GPGGA,103458.000,3027.7731,N,11424.4853,E,1,08,1.1,31.2,M,-13.6,M,,0000*4A
$GPGGA,103459.000,3027.7753,N,11424.4859,E,1,08,1.1,31.1,M,-13.6,M,,0000*46
$GPGGA,103500.000,3027.7778,N,11424.4859,E,1,07,1.2,30.8,M,-13.6,M,,0000*46
$GPGGA,103501.000,3027.7800,N,11424.4853,E,1,07,1.2,30.8,M,-13.6,M,,0000*4D
$GPGGA,103502.000,3027.7830,N,11424.4828,E,1,06,1.7,30.5,M,-13.6,M,,0000*48
$GPGGA,103503.000,3027.7862,N,11424.4801,E,1,07,1.2,30.2,M,-13.6,M,,0000*46
$GPGGA,103504.000,3027.7894,N,11424.4768,E,1,07,1.2,29.9,M,-13.6,M,,0000*4B
$GPGGA,103505.000,3027.7919,N,11424.4740,E,1,07,1.2,29.8,M,-13.6,M,,0000*45
$GPGGA,103506.000,3027.7942,N,11424.4715,E,1,07,1.2,29.7,M,-13.6,M,,0000*47
$GPGGA,103507.000,3027.7964,N,11424.4689,E,1,07,1.2,29.6,M,-13.6,M,,0000*47
$GPGGA,103508.000,3027.7988,N,11424.4661,E,1,07,1.2,29.6,M,-13.6,M,,0000*4C
$GPGGA,103509.000,3027.8010,N,11424.4633,E,1,07,1.2,29.6,M,-13.6,M,,0000*4D
$GPGGA,103510.000,3027.8031,N,11424.4614,E,1,07,1.2,29.6,M,-13.6,M,,0000*43
$GPGGA,103511.000,3027.8070,N,11424.4600,E,1,07,1.2,29.6,M,-13.6,M,,0000*42
$GPGGA,103512.000,3027.8096,N,11424.4577,E,1,07,1.2,29.5,M,-13.6,M,,0000*49
$GPGGA,103513.000,3027.8123,N,11424.4550,E,1,06,1.7,29.5,M,-13.6,M,,0000*46
$GPGGA,103514.000,3027.8159,N,11424.4522,E,1,07,1.2,29.2,M,-13.6,M,,0000*4A
$GPGGA,103515.000,3027.8216,N,11424.4495,E,1,07,1.2,28.9,M,-13.6,M,,0000*44
$GPGGA,103516.000,3027.8263,N,11424.4462,E,1,07,1.2,28.6,M,-13.6,M,,0000*42
$GPGGA,103517.000,3027.8312,N,11424.4427,E,1,07,1.2,28.4,M,-13.6,M,,0000*47
$GPGGA,103518.000,3027.8368,N,11424.4394,E,1,07,1.2,28.3,M,-13.6,M,,0000*4D
$GPGGA,103519.000,3027.8431,N,11424.4354,E,1,07,1.2,28.4,M,-13.6,M,,0000*4C
$GPGGA,103520.000,3027.8504,N,11424.4326,E,1,07,1.2,28.3,M,-13.6,M,,0000*43
$GPGGA,103521.000,3027.8570,N,11424.4303,E,1,07,1.2,28.3,M,-13.6,M,,0000*46
$GPGGA,103522.000,3027.8623,N,11424.4270,E,1,07,1.2,27.9,M,-13.6,M,,0000*40
$GPGGA,103523.000,3027.8674,N,11424.4233,E,1,07,1.2,27.8,M,-13.6,M,,0000*45
$GPGGA,103524.000,3027.8727,N,11424.4196,E,1,07,1.2,27.5,M,-13.6,M,,0000*44
$GPGGA,103525.000,3027.8781,N,11424.4161,E,1,07,1.2,27.2,M,-13.6,M,,0000*46
$GPGGA,103526.000,3027.8832,N,11424.4129,E,1,07,1.2,26.9,M,-13.6,M,,0000*44
$GPGGA,103527.000,3027.8881,N,11424.4093,E,1,08,1.2,26.5,M,-13.6,M,,0000*4E
$GPGGA,103528.000,3027.8924,N,11424.4061,E,1,07,1.2,27.0,M,-13.6,M,,0000*49
$GPGGA,103529.000,3027.8962,N,11424.4026,E,1,07,1.2,27.6,M,-13.6,M,,0000*4F
$GPGGA,103530.000,3027.9001,N,11424.3991,E,1,08,1.2,28.1,M,-13.6,M,,0000*4F
$GPGGA,103531.000,3027.9051,N,11424.3964,E,1,08,1.2,28.7,M,-13.6,M,,0000*47
$GPGGA,103532.000,3027.9106,N,11424.3941,E,1,07,1.2,29.6,M,-13.6,M,,0000*4F
$GPGGA,103533.000,3027.9150,N,11424.3913,E,1,07,1.3,29.5,M,-13.6,M,,0000*48
$GPGGA,103534.000,3027.9193,N,11424.3890,E,1,07,1.2,29.2,M,-13.6,M,,0000*4C
$GPGGA,103535.000,3027.9230,N,11424.3866,E,1,08,1.1,29.3,M,-13.6,M,,0000*43
$GPGGA,103536.000,3027.9264,N,11424.3844,E,1,08,1.1,29.4,M,-13.6,M,,0000*46
$GPGGA,103537.000,3027.9293,N,11424.3821,E,1,08,1.1,29.8,M,-13.6,M,,0000*40
$GPGGA,103538.000,3027.9319,N,11424.3802,E,1,08,1.1,29.4,M,-13.6,M,,0000*41
$GPGGA,103539.000,3027.9342,N,11424.3783,E,1,08,1.1,29.5,M,-13.6,M,,0000*49
$GPGGA,103540.000,3027.9365,N,11424.3767,E,1,08,1.1,29.4,M,-13.6,M,,0000*49
$GPGGA,103541.000,3027.9386,N,11424.3756,E,1,09,1.0,29.5,M,-13.6,M,,0000*46
$GPGGA,103542.000,3027.9400,N,11424.3740,E,1,09,1.0,29.6,M,-13.6,M,,0000*48
$GPGGA,103543.000,3027.9416,N,11424.3738,E,1,09,1.0,29.7,M,-13.6,M,,0000*40
$GPGGA,103544.000,3027.9428,N,11424.3744,E,1,09,1.0,29.6,M,-13.6,M,,0000*40
$GPGGA,103545.000,3027.9438,N,11424.3752,E,1,10,1.0,30.1,M,-13.6,M,,0000*40
$GPGGA,103546.000,3027.9443,N,11424.3762,E,1,11,0.9,31.1,M,-13.6,M,,0000*44
$GPGGA,103547.000,3027.9444,N,11424.3771,E,1,11,0.9,31.3,M,-13.6,M,,0000*42
$GPGGA,103548.000,3027.9444,N,11424.3779,E,1,10,0.9,31.8,M,-13.6,M,,0000*4F
$GPGGA,103549.000,3027.9447,N,11424.3788,E,1,11,0.9,31.7,M,-13.6,M,,0000*4D
$GPGGA,103550.000,3027.9452,N,11424.3804,E,1,11,0.9,31.6,M,-13.6,M,,0000*4B
$GPGGA,103551.000,3027.9456,N,11424.3824,E,1,11,0.9,31.4,M,-13.6,M,,0000*4E
$GPGGA,103552.000,3027.9461,N,11424.3852,E,1,11,0.9,31.3,M,-13.6,M,,0000*4F
$GPGGA,103553.000,3027.9471,N,11424.3887,E,1,10,0.9,31.0,M,-13.6,M,,0000*45
$GPGGA,103554.000,3027.9482,N,11424.3929,E,1,10,0.9,30.6,M,-13.6,M,,0000*4C
$GPGGA,103555.000,3027.9489,N,11424.3981,E,1,10,0.9,30.3,M,-13.6,M,,0000*41
$GPGGA,103556.000,3027.9495,N,11424.4043,E,1,10,0.9,29.8,M,-13.6,M,,0000*4C
$GPGGA,103557.000,3027.9504,N,11424.4109,E,1,09,1.0,29.6,M,-13.6,M,,0000*45
$GPGGA,103558.000,3027.9510,N,11424.4174,E,1,10,0.9,29.8,M,-13.6,M,,0000*4B
$GPGGA,103559.000,3027.9520,N,11424.4242,E,1,09,1.0,30.0,M,-13.6,M,,0000*4F
$GPGGA,103600.000,3027.9528,N,11424.4314,E,1,10,0.9,30.4,M,-13.6,M,,0000*4E
$GPGGA,103601.000,3027.9541,N,11424.4392,E,1,08,1.0,30.6,M,-13.6,M,,0000*4D
$GPGGA,103602.000,3027.9557,N,11424.4469,E,1,08,1.0,30.5,M,-13.6,M,,0000*49
$GPGGA,103603.000,3027.9570,N,11424.4549,E,1,08,1.0,30.4,M,-13.6,M,,0000*4F
$GPGGA,103604.000,3027.9583,N,11424.4630,E,1,07,1.1,30.7,M,-13.6,M,,0000*44
$GPGGA,103605.000,3027.9596,N,11424.4712,E,1,08,0.9,30.6,M,-13.6,M,,0000*47
$GPGGA,103606.000,3027.9609,N,11424.4793,E,1,08,0.9,30.9,M,-13.6,M,,0000*47
$GPGGA,103607.000,3027.9621,N,11424.4872,E,1,08,0.9,30.7,M,-13.6,M,,0000*42
$GPGGA,103608.000,3027.9635,N,11424.4953,E,1,08,0.9,30.5,M,-13.6,M,,0000*48
$GPGGA,103609.000,3027.9646,N,11424.5030,E,1,08,0.9,30.7,M,-13.6,M,,0000*42
$GPGGA,103610.000,3027.9657,N,11424.5108,E,1,08,0.9,30.2,M,-13.6,M,,0000*45
$GPGGA,103611.000,3027.9667,N,11424.5184,E,1,08,0.9,30.0,M,-13.6,M,,0000*41
$GPGGA,103612.000,3027.9679,N,11424.5255,E,1,10,0.9,29.9,M,-13.6,M,,0000*4A
$GPGGA,103613.000,3027.9691,N,11424.5324,E,1,10,0.9,29.9,M,-13.6,M,,0000*4A
$GPGGA,103614.000,3027.9701,N,11424.5393,E,1,11,0.9,30.0,M,-13.6,M,,0000*49
$GPGGA,103615.000,3027.9711,N,11424.5459,E,1,11,0.9,30.4,M,-13.6,M,,0000*4C
$GPGGA,103616.000,3027.9717,N,11424.5527,E,1,11,0.9,30.8,M,-13.6,M,,0000*4D
$GPGGA,103617.000,3027.9726,N,11424.5595,E,1,11,0.9,31.0,M,-13.6,M,,0000*4E
$GPGGA,103618.000,3027.9741,N,11424.5663,E,1,10,1.0,31.2,M,-13.6,M,,0000*41
$GPGGA,103619.000,3027.9758,N,11424.5730,E,1,11,0.9,31.4,M,-13.6,M,,0000*40
$GPGGA,103620.000,3027.9770,N,11424.5797,E,1,11,0.9,31.8,M,-13.6,M,,0000*41
$GPGGA,103621.000,3027.9783,N,11424.5862,E,1,11,0.9,32.2,M,-13.6,M,,0000*40
$GPGGA,103622.000,3027.9795,N,11424.5925,E,1,11,0.9,32.2,M,-13.6,M,,0000*46
$GPGGA,103623.000,3027.9809,N,11424.5990,E,1,11,0.9,32.2,M,-13.6,M,,0000*43
$GPGGA,103624.000,3027.9826,N,11424.6058,E,1,11,0.9,32.6,M,-13.6,M,,0000*43
$GPGGA,103625.000,3027.9843,N,11424.6128,E,1,11,0.9,32.9,M,-13.6,M,,0000*48
$GPGGA,103626.000,3027.9860,N,11424.6198,E,1,11,0.9,33.3,M,-13.6,M,,0000*4A
$GPGGA,103627.000,3027.9878,N,11424.6268,E,1,11,0.9,33.7,M,-13.6,M,,0000*4A
$GPGGA,103628.000,3027.9898,N,11424.6335,E,1,11,0.9,34.1,M,-13.6,M,,0000*43
$GPGGA,103629.000,3027.9915,N,11424.6404,E,1,11,0.9,34.0,M,-13.6,M,,0000*42
$GPGGA,103630.000,3027.9931,N,11424.6477,E,1,11,0.9,34.1,M,-13.6,M,,0000*49
$GPGGA,103631.000,3027.9944,N,11424.6554,E,1,11,0.9,34.1,M,-13.6,M,,0000*4A
$GPGGA,103632.000,3027.9956,N,11424.6634,E,1,11,0.9,34.3,M,-13.6,M,,0000*4D
$GPGGA,103633.000,3027.9969,N,11424.6715,E,1,11,0.9,34.4,M,-13.6,M,,0000*45
$GPGGA,103634.000,3027.9984,N,11424.6799,E,1,10,0.9,34.1,M,-13.6,M,,0000*41
$GPGGA,103635.000,3028.0001,N,11424.6881,E,1,11,0.9,34.2,M,-13.6,M,,0000*46
$GPGGA,103636.000,3028.0016,N,11424.6963,E,1,10,0.9,33.7,M,-13.6,M,,0000*4D
$GPGGA,103637.000,3028.0031,N,11424.7045,E,1,11,0.9,33.4,M,-13.6,M,,0000*47
$GPGGA,103638.000,3028.0045,N,11424.7129,E,1,11,0.9,33.4,M,-13.6,M,,0000*40
$GPGGA,103639.000,3028.0057,N,11424.7215,E,1,11,0.9,33.4,M,-13.6,M,,0000*4E
$GPGGA,103640.000,3028.0069,N,11424.7302,E,1,11,0.9,33.4,M,-13.6,M,,0000*4A
$GPGGA,103641.000,3028.0081,N,11424.7390,E,1,11,0.9,33.5,M,-13.6,M,,0000*47
$GPGGA,103642.000,3028.0093,N,11424.7479,E,1,10,0.9,33.4,M,-13.6,M,,0000*47
$GPGGA,103643.000,3028.0103,N,11424.7571,E,1,11,0.9,33.4,M,-13.6,M,,0000*46
$GPGGA,103644.000,3028.0112,N,11424.7662,E,1,11,0.9,33.3,M,-13.6,M,,0000*47
$GPGGA,103645.000,3028.0120,N,11424.7752,E,1,11,0.9,33.3,M,-13.6,M,,0000*45
$GPGGA,103646.000,3028.0122,N,11424.7844,E,1,11,0.9,33.7,M,-13.6,M,,0000*48
$GPGGA,103647.000,3028.0126,N,11424.7937,E,1,11,0.9,33.5,M,-13.6,M,,0000*4A
$GPGGA,103648.000,3028.0129,N,11424.8031,E,1,11,0.9,33.7,M,-13.6,M,,0000*48
$GPGGA,103649.000,3028.0126,N,11424.8128,E,1,11,0.9,34.0,M,-13.6,M,,0000*4F
$GPGGA,103650.000,3028.0122,N,11424.8227,E,1,11,0.9,34.3,M,-13.6,M,,0000*4C
$GPGGA,103651.000,3028.0114,N,11424.8327,E,1,11,0.9,34.5,M,-13.6,M,,0000*4F
$GPGGA,103652.000,3028.0107,N,11424.8429,E,1,11,0.9,34.5,M,-13.6,M,,0000*47
$GPGGA,103653.000,3028.0100,N,11424.8534,E,1,11,0.9,34.5,M,-13.6,M,,0000*4C
$GPGGA,103654.000,3028.0094,N,11424.8642,E,1,11,0.9,34.0,M,-13.6,M,,0000*40
$GPGGA,103655.000,3028.0089,N,11424.8751,E,1,10,0.9,34.1,M,-13.6,M,,0000*4E
$GPGGA,103656.000,3028.0084,N,11424.8866,E,1,08,1.0,34.2,M,-13.6,M,,0000*49
$GPGGA,103657.000,3028.0081,N,11424.8981,E,1,10,0.9,34.3,M,-13.6,M,,0000*45
$GPGGA,103658.000,3028.0077,N,11424.9093,E,1,11,0.9,34.4,M,-13.6,M,,0000*4E
$GPGGA,103659.000,3028.0071,N,11424.9201,E,1,11,0.9,34.5,M,-13.6,M,,0000*41
$GPGGA,103700.000,3028.0068,N,11424.9306,E,1,11,0.9,34.3,M,-13.6,M,,0000*44
$GPGGA,103701.000,3028.0067,N,11424.9412,E,1,11,0.9,34.5,M,-13.6,M,,0000*4E
$GPGGA,103702.000,3028.0072,N,11424.9513,E,1,11,0.9,35.2,M,-13.6,M,,0000*4F
$GPGGA,103703.000,3028.0086,N,11424.9609,E,1,11,0.9,35.7,M,-13.6,M,,0000*48
$GPGGA,103704.000,3028.0108,N,11424.9694,E,1,11,0.9,37.2,M,-13.6,M,,0000*4B
$GPGGA,103705.000,3028.0139,N,11424.9776,E,1,11,0.9,37.8,M,-13.6,M,,0000*4F
$GPGGA,103706.000,3028.0176,N,11424.9849,E,1,11,0.9,39.1,M,-13.6,M,,0000*43
$GPGGA,103707.000,3028.0224,N,11424.9912,E,1,11,0.9,40.6,M,-13.6,M,,0000*40
$GPGGA,103708.000,3028.0279,N,11424.9963,E,1,11,0.9,40.7,M,-13.6,M,,0000*40
$GPGGA,103709.000,3028.0340,N,11425.0007,E,1,11,0.9,40.8,M,-13.6,M,,0000*46
$GPGGA,103710.000,3028.0406,N,11425.0043,E,1,11,0.9,40.9,M,-13.6,M,,0000*4A
$GPGGA,103711.000,3028.0475,N,11425.0069,E,1,11,0.9,40.8,M,-13.6,M,,0000*46
$GPGGA,103712.000,3028.0546,N,11425.0088,E,1,11,0.9,40.8,M,-13.6,M,,0000*4B
$GPGGA,103713.000,3028.0619,N,11425.0097,E,1,11,0.9,41.3,M,-13.6,M,,0000*47
$GPGGA,103714.000,3028.0697,N,11425.0087,E,1,11,0.9,40.7,M,-13.6,M,,0000*42
$GPGGA,103715.000,3028.0774,N,11425.0062,E,1,11,0.9,40.8,M,-13.6,M,,0000*4B
$GPGGA,103716.000,3028.0852,N,11425.0023,E,1,11,0.9,40.5,M,-13.6,M,,0000*4B
$GPGGA,103717.000,3028.0932,N,11424.9974,E,1,11,0.9,41.1,M,-13.6,M,,0000*4B
$GPGGA,103718.000,3028.1008,N,11424.9916,E,1,11,0.9,41.4,M,-13.6,M,,0000*44
$GPGGA,103719.000,3028.1078,N,11424.9849,E,1,10,0.9,41.4,M,-13.6,M,,0000*48
$GPGGA,103720.000,3028.1146,N,11424.9774,E,1,11,0.9,41.3,M,-13.6,M,,0000*49
$GPGGA,103721.000,3028.1212,N,11424.9695,E,1,11,0.9,41.0,M,-13.6,M,,0000*47
$GPGGA,103722.000,3028.1278,N,11424.9615,E,1,11,0.9,40.9,M,-13.6,M,,0000*48
$GPGGA,103723.000,3028.1343,N,11424.9534,E,1,11,0.9,41.0,M,-13.6,M,,0000*48
$GPGGA,103724.000,3028.1410,N,11424.9451,E,1,11,0.9,40.4,M,-13.6,M,,0000*49
$GPGGA,103725.000,3028.1479,N,11424.9368,E,1,11,0.9,40.4,M,-13.6,M,,0000*4A
$GPGGA,103726.000,3028.1547,N,11424.9289,E,1,11,0.9,40.4,M,-13.6,M,,0000*4B
$GPGGA,103727.000,3028.1618,N,11424.9214,E,1,10,1.0,40.1,M,-13.6,M,,0000*4B
$GPGGA,103728.000,3028.1688,N,11424.9145,E,1,10,1.0,39.0,M,-13.6,M,,0000*45
$GPGGA,103729.000,3028.1761,N,11424.9078,E,1,10,1.0,39.0,M,-13.6,M,,0000*4D
$GPGGA,103730.000,3028.1837,N,11424.9022,E,1,08,2.2,38.9,M,-13.6,M,,0000*46
$GPGGA,103731.000,3028.1916,N,11424.8976,E,1,08,2.2,38.8,M,-13.6,M,,0000*4D
$GPGGA,103732.000,3028.1997,N,11424.8942,E,1,09,1.0,38.9,M,-13.6,M,,0000*41
$GPGGA,103733.000,3028.2080,N,11424.8924,E,1,09,1.0,39.4,M,-13.6,M,,0000*40
$GPGGA,103734.000,3028.2164,N,11424.8913,E,1,08,1.1,39.4,M,-13.6,M,,0000*48
$GPGGA,103735.000,3028.2248,N,11424.8906,E,1,09,1.0,39.5,M,-13.6,M,,0000*41
$GPGGA,103736.000,3028.2332,N,11424.8900,E,1,10,0.9,39.7,M,-13.6,M,,0000*4A
$GPGGA,103737.000,3028.2417,N,11424.8894,E,1,11,0.9,39.6,M,-13.6,M,,0000*47
$GPGGA,103738.000,3028.2502,N,11424.8887,E,1,11,0.9,39.4,M,-13.6,M,,0000*4D
$GPGGA,103739.000,3028.2588,N,11424.8880,E,1,11,0.9,39.3,M,-13.6,M,,0000*4E
$GPGGA,103740.000,3028.2672,N,11424.8876,E,1,11,0.9,38.7,M,-13.6,M,,0000*4A
$GPGGA,103741.000,3028.2758,N,11424.8874,E,1,11,0.9,38.7,M,-13.6,M,,0000*40
$GPGGA,103742.000,3028.2845,N,11424.8873,E,1,11,0.9,39.0,M,-13.6,M,,0000*41
$GPGGA,103743.000,3028.2930,N,11424.8871,E,1,11,0.9,40.0,M,-13.6,M,,0000*4F
$GPGGA,103744.000,3028.3014,N,11424.8869,E,1,11,0.9,40.7,M,-13.6,M,,0000*48
$GPGGA,103745.000,3028.3099,N,11424.8866,E,1,10,1.0,40.8,M,-13.6,M,,0000*45
$GPGGA,103746.000,3028.3184,N,11424.8863,E,1,10,1.0,41.2,M,-13.6,M,,0000*45
$GPGGA,103747.000,3028.3270,N,11424.8861,E,1,09,1.0,42.0,M,-13.6,M,,0000*47
$GPGGA,103748.000,3028.3356,N,11424.8859,E,1,10,1.0,42.7,M,-13.6,M,,0000*49
$GPGGA,103749.000,3028.3446,N,11424.8857,E,1,10,1.0,42.9,M,-13.6,M,,0000*4E
$GPGGA,103750.000,3028.3539,N,11424.8856,E,1,10,1.0,43.5,M,-13.6,M,,0000*43
$GPGGA,103751.000,3028.3633,N,11424.8855,E,1,10,1.0,44.0,M,-13.6,M,,0000*4A
$GPGGA,103752.000,3028.3731,N,11424.8852,E,1,09,1.1,44.3,M,-13.6,M,,0000*47
$GPGGA,103753.000,3028.3829,N,11424.8852,E,1,10,1.0,44.7,M,-13.6,M,,0000*4D
$GPGGA,103754.000,3028.3928,N,11424.8850,E,1,09,1.1,44.9,M,-13.6,M,,0000*4F
$GPGGA,103755.000,3028.4029,N,11424.8848,E,1,08,2.2,45.2,M,-13.6,M,,0000*43
$GPGGA,103756.000,3028.4133,N,11424.8848,E,1,10,1.0,44.8,M,-13.6,M,,0000*49
$GPGGA,103757.000,3028.4240,N,11424.8854,E,1,09,1.0,42.1,M,-13.6,M,,0000*45
$GPGGA,103758.000,3028.4345,N,11424.8853,E,1,06,3.0,41.9,M,-13.6,M,,0000*4F
$GPGGA,103759.000,3028.4453,N,11424.8853,E,1,09,1.0,41.0,M,-13.6,M,,0000*4A
$GPGGA,103800.000,3028.4559,N,11424.8852,E,1,10,0.9,40.8,M,-13.6,M,,0000*4A
$GPGGA,103801.000,3028.4667,N,11424.8851,E,1,10,0.9,40.4,M,-13.6,M,,0000*4A
$GPGGA,103802.000,3028.4771,N,11424.8850,E,1,09,1.0,39.8,M,-13.6,M,,0000*4C
$GPGGA,103803.000,3028.4874,N,11424.8849,E,1,09,1.0,39.4,M,-13.6,M,,0000*43
$GPGGA,103804.000,3028.4976,N,11424.8850,E,1,09,1.0,39.0,M,-13.6,M,,0000*4B
$GPGGA,103805.000,3028.5079,N,11424.8853,E,1,09,1.0,38.4,M,-13.6,M,,0000*4B
$GPGGA,103806.000,3028.5181,N,11424.8855,E,1,08,1.2,38.5,M,-13.6,M,,0000*4A
$GPGGA,103807.000,3028.5281,N,11424.8855,E,1,07,2.3,38.5,M,-13.6,M,,0000*45
$GPGGA,103808.000,3028.5385,N,11424.8859,E,1,10,0.9,38.7,M,-13.6,M,,0000*4F
$GPGGA,103809.000,3028.5489,N,11424.8865,E,1,09,1.0,38.0,M,-13.6,M,,0000*4D
$GPGGA,103810.000,3028.5597,N,11424.8872,E,1,10,0.9,37.6,M,-13.6,M,,0000*44
$GPGGA,103811.000,3028.5710,N,11424.8879,E,1,09,1.1,37.2,M,-13.6,M,,0000*46
$GPGGA,103812.000,3028.5822,N,11424.8886,E,1,09,1.1,37.2,M,-13.6,M,,0000*4B
$GPGGA,103813.000,3028.5934,N,11424.8895,E,1,09,1.1,37.1,M,-13.6,M,,0000*4D
$GPGGA,103814.000,3028.6045,N,11424.8904,E,1,09,1.1,37.0,M,-13.6,M,,0000*4E
$GPGGA,103815.000,3028.6156,N,11424.8914,E,1,09,1.1,38.0,M,-13.6,M,,0000*42
$GPGGA,103816.000,3028.6270,N,11424.8926,E,1,09,1.1,38.3,M,-13.6,M,,0000*44
$GPGGA,103817.000,3028.6384,N,11424.8939,E,1,10,0.9,38.5,M,-13.6,M,,0000*46
$GPGGA,103818.000,3028.6503,N,11424.8956,E,1,10,0.9,39.4,M,-13.6,M,,0000*49
$GPGGA,103819.000,3028.6620,N,11424.8972,E,1,11,0.9,39.8,M,-13.6,M,,0000*41
$GPGGA,103820.000,3028.6738,N,11424.8988,E,1,11,0.9,39.9,M,-13.6,M,,0000*47
$GPGGA,103821.000,3028.6856,N,11424.9005,E,1,11,0.9,39.9,M,-13.6,M,,0000*4C
$GPGGA,103822.000,3028.6973,N,11424.9024,E,1,11,0.9,39.8,M,-13.6,M,,0000*4B
$GPGGA,103823.000,3028.7088,N,11424.9041,E,1,10,0.9,40.1,M,-13.6,M,,0000*43
$GPGGA,103824.000,3028.7204,N,11424.9059,E,1,10,0.9,40.5,M,-13.6,M,,0000*4F
$GPGGA,103825.000,3028.7319,N,11424.9075,E,1,11,0.9,40.8,M,-13.6,M,,0000*41
$GPGGA,103826.000,3028.7434,N,11424.9092,E,1,11,0.9,40.8,M,-13.6,M,,0000*43
$GPGGA,103827.000,3028.7547,N,11424.9108,E,1,11,0.9,41.7,M,-13.6,M,,0000*4B
$GPGGA,103828.000,3028.7660,N,11424.9124,E,1,10,1.0,42.1,M,-13.6,M,,0000*40
$GPGGA,103829.000,3028.7774,N,11424.9137,E,1,09,1.0,42.9,M,-13.6,M,,0000*47
$GPGGA,103830.000,3028.7887,N,11424.9150,E,1,10,0.9,44.0,M,-13.6,M,,0000*42
$GPGGA,103831.000,3028.7999,N,11424.9161,E,1,11,0.9,45.3,M,-13.6,M,,0000*4C
$GPGGA,103832.000,3028.8113,N,11424.9172,E,1,10,0.9,46.5,M,-13.6,M,,0000*4C
$GPGGA,103833.000,3028.8225,N,11424.9183,E,1,10,0.9,47.7,M,-13.6,M,,0000*46
$GPGGA,103834.000,3028.8338,N,11424.9195,E,1,11,0.9,48.4,M,-13.6,M,,0000*46
$GPGGA,103835.000,3028.8449,N,11424.9205,E,1,11,0.9,49.4,M,-13.6,M,,0000*4D
$GPGGA,103836.000,3028.8560,N,11424.9215,E,1,11,0.9,50.2,M,-13.6,M,,0000*4B
$GPGGA,103837.000,3028.8668,N,11424.9222,E,1,11,0.9,51.2,M,-13.6,M,,0000*44
$GPGGA,103838.000,3028.8775,N,11424.9233,E,1,11,0.9,51.7,M,-13.6,M,,0000*43
$GPGGA,103839.000,3028.8879,N,11424.9244,E,1,11,0.9,52.4,M,-13.6,M,,0000*41
$GPGGA,103840.000,3028.8982,N,11424.9257,E,1,10,1.0,52.7,M,-13.6,M,,0000*42
$GPGGA,103841.000,3028.9083,N,11424.9269,E,1,10,1.0,52.9,M,-13.6,M,,0000*49
$GPGGA,103842.000,3028.9183,N,11424.9280,E,1,10,1.0,53.5,M,-13.6,M,,0000*41
$GPGGA,103843.000,3028.9281,N,11424.9291,E,1,10,1.0,54.3,M,-13.6,M,,0000*40
$GPGGA,103844.000,3028.9378,N,11424.9303,E,1,10,1.0,54.3,M,-13.6,M,,0000*4A
$GPGGA,103845.000,3028.9475,N,11424.9316,E,1,10,1.0,54.7,M,-13.6,M,,0000*41
$GPGGA,103846.000,3028.9571,N,11424.9329,E,1,09,1.0,55.3,M,-13.6,M,,0000*46
$GPGGA,103847.000,3028.9667,N,11424.9342,E,1,09,1.0,56.0,M,-13.6,M,,0000*4E
$GPGGA,103848.000,3028.9764,N,11424.9353,E,1,11,0.9,56.4,M,-13.6,M,,0000*46
$GPGGA,103849.000,3028.9861,N,11424.9363,E,1,10,0.9,57.3,M,-13.6,M,,0000*49
$GPGGA,103850.000,3028.9956,N,11424.9373,E,1,10,0.9,58.0,M,-13.6,M,,0000*49
$GPGGA,103851.000,3029.0053,N,11424.9384,E,1,11,0.9,58.5,M,-13.6,M,,0000*40
$GPGGA,103852.000,3029.0148,N,11424.9396,E,1,11,0.9,58.9,M,-13.6,M,,0000*47
$GPGGA,103853.000,3029.0245,N,11424.9407,E,1,11,0.9,59.0,M,-13.6,M,,0000*4F
$GPGGA,103854.000,3029.0342,N,11424.9419,E,1,10,0.9,59.2,M,-13.6,M,,0000*42
$GPGGA,103855.000,3029.0441,N,11424.9432,E,1,11,0.9,58.9,M,-13.6,M,,0000*45
$GPGGA,103856.000,3029.0539,N,11424.9444,E,1,10,0.9,58.9,M,-13.6,M,,0000*48
$GPGGA,103857.000,3029.0636,N,11424.9455,E,1,09,1.1,59.0,M,-13.6,M,,0000*4C
$GPGGA,103858.000,3029.0733,N,11424.9468,E,1,11,0.9,58.8,M,-13.6,M,,0000*40
$GPGGA,103859.000,3029.0832,N,11424.9481,E,1,11,0.9,58.3,M,-13.6,M,,0000*43
$GPGGA,103900.000,3029.0932,N,11424.9495,E,1,11,0.9,57.6,M,-13.6,M,,0000*40
$GPGGA,103901.000,3029.1031,N,11424.9506,E,1,11,0.9,57.5,M,-13.6,M,,0000*42
$GPGGA,103902.000,3029.1129,N,11424.9518,E,1,10,1.0,57.1,M,-13.6,M,,0000*4B
$GPGGA,103903.000,3029.1226,N,11424.9527,E,1,11,0.9,56.9,M,-13.6,M,,0000*4A
$GPGGA,103904.000,3029.1322,N,11424.9535,E,1,11,0.9,56.9,M,-13.6,M,,0000*4B
$GPGGA,103905.000,3029.1417,N,11424.9542,E,1,11,0.9,57.3,M,-13.6,M,,0000*40
$GPGGA,103906.000,3029.1512,N,11424.9550,E,1,11,0.9,57.1,M,-13.6,M,,0000*46
$GPGGA,103907.000,3029.1605,N,11424.9557,E,1,10,1.0,57.1,M,-13.6,M,,0000*4C
$GPGGA,103908.000,3029.1698,N,11424.9563,E,1,10,1.0,57.1,M,-13.6,M,,0000*40
$GPGGA,103909.000,3029.1792,N,11424.9572,E,1,10,0.9,56.4,M,-13.6,M,,0000*46
$GPGGA,103910.000,3029.1881,N,11424.9578,E,1,09,1.0,56.8,M,-13.6,M,,0000*45
$GPGGA,103911.000,3029.1974,N,11424.9583,E,1,11,0.9,56.7,M,-13.6,M,,0000*45
$GPGGA,103912.000,3029.2068,N,11424.9586,E,1,10,1.0,56.5,M,-13.6,M,,0000*4F
$GPGGA,103913.000,3029.2159,N,11424.9590,E,1,09,1.1,56.7,M,-13.6,M,,0000*41
$GPGGA,103914.000,3029.2253,N,11424.9594,E,1,10,1.0,56.5,M,-13.6,M,,0000*40
$GPGGA,103915.000,3029.2349,N,11424.9599,E,1,11,0.9,56.5,M,-13.6,M,,0000*4F
$GPGGA,103916.000,3029.2446,N,11424.9604,E,1,11,0.9,56.6,M,-13.6,M,,0000*40
$GPGGA,103917.000,3029.2543,N,11424.9609,E,1,11,0.9,56.3,M,-13.6,M,,0000*4D
$GPGGA,103918.000,3029.2642,N,11424.9615,E,1,11,0.9,55.9,M,-13.6,M,,0000*44
$GPGGA,103919.000,3029.2739,N,11424.9619,E,1,10,0.9,55.6,M,-13.6,M,,0000*4A
$GPGGA,103920.000,3029.2837,N,11424.9625,E,1,11,0.9,54.9,M,-13.6,M,,0000*41
$GPGGA,103921.000,3029.2933,N,11424.9629,E,1,11,0.9,54.6,M,-13.6,M,,0000*46
$GPGGA,103922.000,3029.3026,N,11424.9633,E,1,11,0.9,54.5,M,-13.6,M,,0000*41
$GPGGA,103923.000,3029.3120,N,11424.9637,E,1,11,0.9,54.2,M,-13.6,M,,0000*44
$GPGGA,103924.000,3029.3212,N,11424.9640,E,1,11,0.9,54.0,M,-13.6,M,,0000*43
$GPGGA,103925.000,3029.3303,N,11424.9644,E,1,11,0.9,53.8,M,-13.6,M,,0000*48
$GPGGA,103926.000,3029.3390,N,11424.9648,E,1,11,0.9,53.4,M,-13.6,M,,0000*41
$GPGGA,103927.000,3029.3472,N,11424.9650,E,1,11,0.9,52.9,M,-13.6,M,,0000*4E
$GPGGA,103928.000,3029.3550,N,11424.9653,E,1,11,0.9,52.7,M,-13.6,M,,0000*4D
$GPGGA,103929.000,3029.3626,N,11424.9655,E,1,11,0.9,52.5,M,-13.6,M,,0000*4A
$GPGGA,103930.000,3029.3699,N,11424.9658,E,1,11,0.9,52.3,M,-13.6,M,,0000*4D
$GPGGA,103931.000,3029.3772,N,11424.9661,E,1,10,1.0,52.4,M,-13.6,M,,0000*4C
$GPGGA,103932.000,3029.3845,N,11424.9664,E,1,11,0.9,52.4,M,-13.6,M,,0000*48
$GPGGA,103933.000,3029.3916,N,11424.9668,E,1,11,0.9,52.3,M,-13.6,M,,0000*45
$GPGGA,103934.000,3029.3988,N,11424.9672,E,1,11,0.9,52.1,M,-13.6,M,,0000*4C
$GPGGA,103935.000,3029.4059,N,11424.9675,E,1,11,0.9,51.9,M,-13.6,M,,0000*43
$GPGGA,103936.000,3029.4130,N,11424.9678,E,1,11,0.9,51.5,M,-13.6,M,,0000*4F
$GPGGA,103937.000,3029.4201,N,11424.9680,E,1,11,0.9,51.4,M,-13.6,M,,0000*49
$GPGGA,103938.000,3029.4270,N,11424.9682,E,1,11,0.9,51.2,M,-13.6,M,,0000*44
$GPGGA,103939.000,3029.4342,N,11424.9684,E,1,11,0.9,51.3,M,-13.6,M,,0000*42
$GPGGA,103940.000,3029.4418,N,11424.9686,E,1,11,0.9,51.3,M,-13.6,M,,0000*46
$GPGGA,103941.000,3029.4497,N,11424.9690,E,1,11,0.9,51.3,M,-13.6,M,,0000*47
$GPGGA,103942.000,3029.4574,N,11424.9694,E,1,11,0.9,51.3,M,-13.6,M,,0000*4C
$GPGGA,103943.000,3029.4650,N,11424.9697,E,1,11,0.9,51.4,M,-13.6,M,,0000*4C
$GPGGA,103944.000,3029.4726,N,11424.9702,E,1,11,0.9,51.3,M,-13.6,M,,0000*41
$GPGGA,103945.000,3029.4803,N,11424.9706,E,1,11,0.9,51.3,M,-13.6,M,,0000*4C
$GPGGA,103946.000,3029.4881,N,11424.9711,E,1,11,0.9,51.2,M,-13.6,M,,0000*42
$GPGGA,103947.000,3029.4962,N,11424.9717,E,1,11,0.9,51.4,M,-13.6,M,,0000*4F
$GPGGA,103948.000,3029.5044,N,11424.9724,E,1,11,0.9,51.2,M,-13.6,M,,0000*4A
$GPGGA,103949.000,3029.5124,N,11424.9733,E,1,11,0.9,51.5,M,-13.6,M,,0000*4D
$GPGGA,103950.000,3029.5203,N,11424.9743,E,1,10,1.0,51.1,M,-13.6,M,,0000*49
$GPGGA,103951.000,3029.5286,N,11424.9752,E,1,10,1.0,51.0,M,-13.6,M,,0000*44
$GPGGA,103952.000,3029.5370,N,11424.9761,E,1,10,1.0,50.7,M,-13.6,M,,0000*49
$GPGGA,103953.000,3029.5458,N,11424.9771,E,1,10,1.0,50.2,M,-13.6,M,,0000*41
$GPGGA,103954.000,3029.5548,N,11424.9780,E,1,10,1.0,49.6,M,-13.6,M,,0000*44
$GPGGA,103955.000,3029.5639,N,11424.9790,E,1,10,1.0,49.3,M,-13.6,M,,0000*44
$GPGGA,103956.000,3029.5730,N,11424.9802,E,1,10,1.0,49.0,M,-13.6,M,,0000*48
$GPGGA,103957.000,3029.5820,N,11424.9812,E,1,10,1.0,48.7,M,-13.6,M,,0000*40
$GPGGA,103958.000,3029.5909,N,11424.9823,E,1,10,1.0,48.5,M,-13.6,M,,0000*45
$GPGGA,103959.000,3029.5998,N,11424.9833,E,1,10,1.0,48.6,M,-13.6,M,,0000*4E
$GPGGA,104000.000,3029.6084,N,11424.9843,E,1,11,0.9,49.3,M,-13.6,M,,0000*41
$GPGGA,104001.000,3029.6171,N,11424.9854,E,1,11,0.9,49.9,M,-13.6,M,,0000*47
$GPGGA,104002.000,3029.6258,N,11424.9865,E,1,11,0.9,49.9,M,-13.6,M,,0000*4E
$GPGGA,104003.000,3029.6344,N,11424.9876,E,1,11,0.9,50.1,M,-13.6,M,,0000*41
$GPGGA,104004.000,3029.6430,N,11424.9887,E,1,11,0.9,50.1,M,-13.6,M,,0000*4C
$GPGGA,104005.000,3029.6515,N,11424.9899,E,1,11,0.9,50.5,M,-13.6,M,,0000*40
$GPGGA,104006.000,3029.6600,N,11424.9908,E,1,10,0.9,50.7,M,-13.6,M,,0000*4E
$GPGGA,104007.000,3029.6686,N,11424.9920,E,1,10,0.9,51.0,M,-13.6,M,,0000*4D
$GPGGA,104008.000,3029.6773,N,11424.9929,E,1,11,0.9,51.5,M,-13.6,M,,0000*44
$GPGGA,104009.000,3029.6859,N,11424.9940,E,1,11,0.9,51.9,M,-13.6,M,,0000*41
$GPGGA,104010.000,3029.6947,N,11424.9951,E,1,11,0.9,51.9,M,-13.6,M,,0000*47
$GPGGA,104011.000,3029.7034,N,11424.9964,E,1,10,1.0,52.0,M,-13.6,M,,0000*4F
$GPGGA,104012.000,3029.7121,N,11424.9976,E,1,10,1.0,52.3,M,-13.6,M,,0000*49
$GPGGA,104013.000,3029.7208,N,11424.9989,E,1,10,1.0,52.7,M,-13.6,M,,0000*44
$GPGGA,104014.000,3029.7296,N,11425.0001,E,1,10,1.0,53.1,M,-13.6,M,,0000*42
$GPGGA,104015.000,3029.7385,N,11425.0011,E,1,10,1.0,53.3,M,-13.6,M,,0000*43
$GPGGA,104016.000,3029.7474,N,11425.0023,E,1,11,0.9,52.6,M,-13.6,M,,0000*45
$GPGGA,104017.000,3029.7564,N,11425.0035,E,1,11,0.9,52.6,M,-13.6,M,,0000*43
$GPGGA,104018.000,3029.7653,N,11425.0047,E,1,10,1.0,52.8,M,-13.6,M,,0000*49
$GPGGA,104019.000,3029.7742,N,11425.0059,E,1,08,1.2,53.1,M,-13.6,M,,0000*45
$GPGGA,104020.000,3029.7830,N,11425.0070,E,1,08,1.2,53.8,M,-13.6,M,,0000*47
$GPGGA,104021.000,3029.7920,N,11425.0082,E,1,08,1.2,54.4,M,-13.6,M,,0000*40
$GPGGA,104022.000,3029.8010,N,11425.0094,E,1,09,1.0,54.7,M,-13.6,M,,0000*41
$GPGGA,104023.000,3029.8101,N,11425.0106,E,1,10,0.9,55.0,M,-13.6,M,,0000*4D
$GPGGA,104024.000,3029.8194,N,11425.0117,E,1,10,0.9,54.9,M,-13.6,M,,0000*4E
$GPGGA,104025.000,3029.8287,N,11425.0129,E,1,11,0.9,54.0,M,-13.6,M,,0000*4B
$GPGGA,104026.000,3029.8381,N,11425.0142,E,1,11,0.9,53.5,M,-13.6,M,,0000*40
$GPGGA,104027.000,3029.8476,N,11425.0154,E,1,11,0.9,53.3,M,-13.6,M,,0000*4F
$GPGGA,104028.000,3029.8573,N,11425.0165,E,1,10,1.0,52.7,M,-13.6,M,,0000*4A
$GPGGA,104029.000,3029.8669,N,11425.0179,E,1,09,1.2,52.9,M,-13.6,M,,0000*4A
$GPGGA,104030.000,3029.8763,N,11425.0195,E,1,09,1.0,53.2,M,-13.6,M,,0000*43
$GPGGA,104031.000,3029.8857,N,11425.0213,E,1,10,1.0,53.2,M,-13.6,M,,0000*4F
$GPGGA,104032.000,3029.8956,N,11425.0227,E,1,09,1.2,53.4,M,-13.6,M,,0000*47
$GPGGA,104033.000,3029.9056,N,11425.0237,E,1,07,2.7,53.5,M,-13.6,M,,0000*46
$GPGGA,104034.000,3029.9156,N,11425.0249,E,1,09,1.0,53.8,M,-13.6,M,,0000*4E
$GPGGA,104035.000,3029.9258,N,11425.0260,E,1,09,1.0,53.7,M,-13.6,M,,0000*46
$GPGGA,104036.000,3029.9363,N,11425.0272,E,1,10,1.0,53.3,M,-13.6,M,,0000*43
$GPGGA,104037.000,3029.9467,N,11425.0284,E,1,10,1.0,52.7,M,-13.6,M,,0000*4D
$GPGGA,104038.000,3029.9572,N,11425.0292,E,1,10,1.0,53.1,M,-13.6,M,,0000*47
$GPGGA,104039.000,3029.9677,N,11425.0303,E,1,10,1.0,53.3,M,-13.6,M,,0000*4B
$GPGGA,104040.000,3029.9785,N,11425.0314,E,1,10,1.0,53.6,M,-13.6,M,,0000*4A
$GPGGA,104041.000,3029.9892,N,11425.0325,E,1,09,1.1,53.5,M,-13.6,M,,0000*4A
$GPGGA,104042.000,3030.0000,N,11425.0337,E,1,09,1.1,52.9,M,-13.6,M,,0000*45
$GPGGA,104043.000,3030.0109,N,11425.0347,E,1,09,1.1,52.6,M,-13.6,M,,0000*44
$GPGGA,104044.000,3030.0214,N,11425.0360,E,1,09,1.1,52.7,M,-13.6,M,,0000*48
$GPGGA,104045.000,3030.0321,N,11425.0374,E,1,09,1.1,52.5,M,-13.6,M,,0000*49
$GPGGA,104046.000,3030.0429,N,11425.0388,E,1,09,1.1,52.1,M,-13.6,M,,0000*42
$GPGGA,104047.000,3030.0533,N,11425.0400,E,1,09,1.1,51.7,M,-13.6,M,,0000*4B
$GPGGA,104048.000,3030.0637,N,11425.0409,E,1,09,1.1,51.0,M,-13.6,M,,0000*4D
$GPGGA,104049.000,3030.0741,N,11425.0417,E,1,09,1.1,50.8,M,-13.6,M,,0000*4A
$GPGGA,104050.000,3030.0842,N,11425.0434,E,1,09,1.1,51.5,M,-13.6,M,,0000*43
$GPGGA,104051.000,3030.0944,N,11425.0449,E,1,09,1.1,51.8,M,-13.6,M,,0000*42
$GPGGA,104052.000,3030.1048,N,11425.0465,E,1,08,1.5,52.0,M,-13.6,M,,0000*45
$GPGGA,104053.000,3030.1154,N,11425.0479,E,1,10,0.9,51.6,M,-13.6,M,,0000*44
$GPGGA,104054.000,3030.1261,N,11425.0493,E,1,10,0.9,51.6,M,-13.6,M,,0000*42
$GPGGA,104055.000,3030.1369,N,11425.0504,E,1,10,0.9,51.1,M,-13.6,M,,0000*42
$GPGGA,104056.000,3030.1474,N,11425.0514,E,1,10,0.9,51.6,M,-13.6,M,,0000*4C
$GPGGA,104057.000,3030.1579,N,11425.0528,E,1,10,0.9,52.3,M,-13.6,M,,0000*48
$GPGGA,104058.000,3030.1686,N,11425.0540,E,1,10,0.9,53.3,M,-13.6,M,,0000*4B
$GPGGA,104059.000,3030.1793,N,11425.0552,E,1,10,0.9,54.3,M,-13.6,M,,0000*4B
$GPGGA,104100.000,3030.1900,N,11425.0562,E,1,10,0.9,55.1,M,-13.6,M,,0000*42
$GPGGA,104101.000,3030.2006,N,11425.0574,E,1,10,0.9,54.9,M,-13.6,M,,0000*41
$GPGGA,104102.000,3030.2112,N,11425.0589,E,1,10,0.9,55.2,M,-13.6,M,,0000*4E
$GPGGA,104103.000,3030.2217,N,11425.0605,E,1,09,1.1,56.2,M,-13.6,M,,0000*4C
$GPGGA,104104.000,3030.2321,N,11425.0620,E,1,09,1.1,56.9,M,-13.6,M,,0000*43
$GPGGA,104105.000,3030.2425,N,11425.0631,E,1,09,1.1,56.4,M,-13.6,M,,0000*4C
$GPGGA,104106.000,3030.2530,N,11425.0644,E,1,09,1.1,56.0,M,-13.6,M,,0000*4C
$GPGGA,104107.000,3030.2633,N,11425.0658,E,1,09,1.1,55.6,M,-13.6,M,,0000*45
$GPGGA,104108.000,3030.2734,N,11425.0674,E,1,09,1.1,56.0,M,-13.6,M,,0000*47
$GPGGA,104109.000,3030.2835,N,11425.0688,E,1,09,1.1,55.9,M,-13.6,M,,0000*41
$GPGGA,104110.000,3030.2935,N,11425.0702,E,1,08,1.1,55.6,M,-13.6,M,,0000*45
$GPGGA,104111.000,3030.3033,N,11425.0716,E,1,09,1.1,56.1,M,-13.6,M,,0000*4A
$GPGGA,104112.000,3030.3133,N,11425.0728,E,1,08,1.5,56.8,M,-13.6,M,,0000*49
$GPGGA,104113.000,3030.3232,N,11425.0740,E,1,09,1.1,57.8,M,-13.6,M,,0000*40
$GPGGA,104114.000,3030.3333,N,11425.0751,E,1,08,1.2,58.6,M,-13.6,M,,0000*44
$GPGGA,104115.000,3030.3436,N,11425.0763,E,1,08,1.2,59.6,M,-13.6,M,,0000*47
$GPGGA,104116.000,3030.3541,N,11425.0776,E,1,08,1.2,60.3,M,-13.6,M,,0000*4E
$GPGGA,104117.000,3030.3646,N,11425.0794,E,1,08,1.2,61.1,M,-13.6,M,,0000*44
$GPGGA,104118.000,3030.3753,N,11425.0811,E,1,08,1.2,61.4,M,-13.6,M,,0000*49
$GPGGA,104119.000,3030.3859,N,11425.0831,E,1,08,1.2,62.5,M,-13.6,M,,0000*4D
$GPGGA,104120.000,3030.3967,N,11425.0849,E,1,08,1.2,63.6,M,-13.6,M,,0000*46
$GPGGA,104121.000,3030.4077,N,11425.0864,E,1,08,1.2,64.1,M,-13.6,M,,0000*47
$GPGGA,104122.000,3030.4189,N,11425.0874,E,1,07,1.2,63.8,M,-13.6,M,,0000*44
$GPGGA,104123.000,3030.4301,N,11425.0883,E,1,08,1.2,62.7,M,-13.6,M,,0000*4E
$GPGGA,104124.000,3030.4411,N,11425.0890,E,1,09,1.1,62.1,M,-13.6,M,,0000*49
$GPGGA,104125.000,3030.4518,N,11425.0899,E,1,09,1.1,61.7,M,-13.6,M,,0000*4C
$GPGGA,104126.000,3030.4620,N,11425.0912,E,1,09,1.1,62.1,M,-13.6,M,,0000*40
$GPGGA,104127.000,3030.4723,N,11425.0922,E,1,09,1.1,61.5,M,-13.6,M,,0000*47
$GPGGA,104128.000,3030.4823,N,11425.0935,E,1,09,1.1,61.0,M,-13.6,M,,0000*44
$GPGGA,104129.000,3030.4923,N,11425.0947,E,1,09,1.1,60.4,M,-13.6,M,,0000*44
$GPGGA,104130.000,3030.5021,N,11425.0958,E,1,09,1.1,60.1,M,-13.6,M,,0000*4D
$GPGGA,104131.000,3030.5118,N,11425.0969,E,1,09,1.1,59.9,M,-13.6,M,,0000*47
$GPGGA,104132.000,3030.5215,N,11425.0980,E,1,09,1.1,59.6,M,-13.6,M,,0000*42
$GPGGA,104133.000,3030.5311,N,11425.0991,E,1,09,1.1,59.9,M,-13.6,M,,0000*49
$GPGGA,104134.000,3030.5407,N,11425.1003,E,1,10,0.9,59.9,M,-13.6,M,,0000*4C
$GPGGA,104135.000,3030.5504,N,11425.1017,E,1,09,1.1,59.7,M,-13.6,M,,0000*45
$GPGGA,104136.000,3030.5599,N,11425.1031,E,1,08,1.5,59.9,M,-13.6,M,,0000*4D
$GPGGA,104137.000,3030.5692,N,11425.1040,E,1,09,1.1,60.0,M,-13.6,M,,0000*44
$GPGGA,104138.000,3030.5786,N,11425.1049,E,1,09,1.1,60.8,M,-13.6,M,,0000*4E
$GPGGA,104139.000,3030.5881,N,11425.1059,E,1,09,1.1,62.1,M,-13.6,M,,0000*4D
$GPGGA,104140.000,3030.5977,N,11425.1071,E,1,08,1.2,62.7,M,-13.6,M,,0000*45
$GPGGA,104141.000,3030.6076,N,11425.1079,E,1,08,1.2,63.0,M,-13.6,M,,0000*41
$GPGGA,104142.000,3030.6175,N,11425.1085,E,1,07,1.2,63.0,M,-13.6,M,,0000*4C
$GPGGA,104143.000,3030.6275,N,11425.1093,E,1,08,1.2,63.4,M,-13.6,M,,0000*42
$GPGGA,104144.000,3030.6377,N,11425.1103,E,1,08,1.2,63.8,M,-13.6,M,,0000*42
$GPGGA,104145.000,3030.6477,N,11425.1122,E,1,08,1.2,65.4,M,-13.6,M,,0000*4D
$GPGGA,104146.000,3030.6579,N,11425.1145,E,1,07,1.2,66.7,M,-13.6,M,,0000*4F
$GPGGA,104147.000,3030.6684,N,11425.1165,E,1,07,1.2,67.4,M,-13.6,M,,0000*4F
$GPGGA,104148.000,3030.6794,N,11425.1181,E,1,08,1.1,67.5,M,-13.6,M,,0000*47
$GPGGA,104149.000,3030.6904,N,11425.1196,E,1,09,1.0,67.9,M,-13.6,M,,0000*4B
$GPGGA,104150.000,3030.7014,N,11425.1210,E,1,09,1.0,66.9,M,-13.6,M,,0000*46
$GPGGA,104151.000,3030.7123,N,11425.1225,E,1,09,1.0,66.2,M,-13.6,M,,0000*4F
$GPGGA,104152.000,3030.7235,N,11425.1241,E,1,10,0.9,65.0,M,-13.6,M,,0000*4B
$GPGGA,104153.000,3030.7344,N,11425.1261,E,1,10,0.9,63.9,M,-13.6,M,,0000*40
$GPGGA,104154.000,3030.7449,N,11425.1288,E,1,10,0.9,63.0,M,-13.6,M,,0000*43
$GPGGA,104155.000,3030.7552,N,11425.1313,E,1,10,0.9,61.9,M,-13.6,M,,0000*41
$GPGGA,104156.000,3030.7652,N,11425.1343,E,1,10,0.9,61.2,M,-13.6,M,,0000*4F
$GPGGA,104157.000,3030.7750,N,11425.1376,E,1,10,0.9,60.8,M,-13.6,M,,0000*40
$GPGGA,104158.000,3030.7848,N,11425.1410,E,1,09,1.1,60.3,M,-13.6,M,,0000*44
$GPGGA,104159.000,3030.7948,N,11425.1443,E,1,10,0.9,59.1,M,-13.6,M,,0000*4B
$GPGGA,104200.000,3030.8049,N,11425.1476,E,1,10,0.9,58.0,M,-13.6,M,,0000*45
$GPGGA,104201.000,3030.8149,N,11425.1512,E,1,09,1.1,57.2,M,-13.6,M,,0000*4A
$GPGGA,104202.000,3030.8249,N,11425.1559,E,1,10,0.9,55.4,M,-13.6,M,,0000*40
$GPGGA,104203.000,3030.8349,N,11425.1611,E,1,10,0.9,50.8,M,-13.6,M,,0000*46
$GPGGA,104204.000,3030.8446,N,11425.1652,E,1,10,0.9,50.0,M,-13.6,M,,0000*46
$GPGGA,104205.000,3030.8542,N,11425.1689,E,1,10,0.9,48.6,M,-13.6,M,,0000*4B
$GPGGA,104206.000,3030.8637,N,11425.1723,E,1,10,0.9,47.2,M,-13.6,M,,0000*43
$GPGGA,104207.000,3030.8734,N,11425.1754,E,1,10,0.9,45.4,M,-13.6,M,,0000*44
$GPGGA,104208.000,3030.8827,N,11425.1788,E,1,10,0.9,44.2,M,-13.6,M,,0000*40
$GPGGA,104209.000,3030.8920,N,11425.1828,E,1,09,1.0,44.1,M,-13.6,M,,0000*41
$GPGGA,104210.000,3030.9015,N,11425.1868,E,1,09,1.0,43.3,M,-13.6,M,,0000*46
$GPGGA,104211.000,3030.9111,N,11425.1907,E,1,09,1.0,42.1,M,-13.6,M,,0000*49
$GPGGA,104212.000,3030.9211,N,11425.1945,E,1,09,1.0,40.9,M,-13.6,M,,0000*45
$GPGGA,104213.000,3030.9308,N,11425.1985,E,1,09,1.0,40.9,M,-13.6,M,,0000*41
$GPGGA,104214.000,3030.9402,N,11425.2024,E,1,10,0.9,40.6,M,-13.6,M,,0000*45
$GPGGA,104215.000,3030.9496,N,11425.2060,E,1,10,0.9,40.7,M,-13.6,M,,0000*48
$GPGGA,104216.000,3030.9588,N,11425.2095,E,1,10,0.9,39.9,M,-13.6,M,,0000*4F
$GPGGA,104217.000,3030.9679,N,11425.2132,E,1,10,0.9,39.4,M,-13.6,M,,0000*42
$GPGGA,104218.000,3030.9764,N,11425.2171,E,1,10,0.9,40.4,M,-13.6,M,,0000*49
$GPGGA,104219.000,3030.9854,N,11425.2208,E,1,10,0.9,40.4,M,-13.6,M,,0000*49
$GPGGA,104220.000,3030.9941,N,11425.2244,E,1,10,0.9,39.5,M,-13.6,M,,0000*41
$GPGGA,104221.000,3031.0028,N,11425.2281,E,1,10,0.9,38.5,M,-13.6,M,,0000*46
$GPGGA,104222.000,3031.0109,N,11425.2316,E,1,10,0.9,38.5,M,-13.6,M,,0000*48
$GPGGA,104223.000,3031.0190,N,11425.2351,E,1,10,0.9,38.3,M,-13.6,M,,0000*4C
$GPGGA,104224.000,3031.0271,N,11425.2386,E,1,10,0.9,38.0,M,-13.6,M,,0000*4E
$GPGGA,104225.000,3031.0350,N,11425.2418,E,1,10,0.9,37.4,M,-13.6,M,,0000*46
$GPGGA,104226.000,3031.0429,N,11425.2453,E,1,10,0.9,36.9,M,-13.6,M,,0000*4F
$GPGGA,104227.000,3031.0509,N,11425.2486,E,1,10,0.9,37.1,M,-13.6,M,,0000*4C
$GPGGA,104228.000,3031.0588,N,11425.2522,E,1,11,0.9,36.9,M,-13.6,M,,0000*4D
$GPGGA,104229.000,3031.0666,N,11425.2555,E,1,11,0.9,36.8,M,-13.6,M,,0000*4E
$GPGGA,104230.000,3031.0747,N,11425.2590,E,1,11,0.9,37.1,M,-13.6,M,,0000*45
$GPGGA,104231.000,3031.0829,N,11425.2628,E,1,11,0.9,37.6,M,-13.6,M,,0000*44
$GPGGA,104232.000,3031.0915,N,11425.2665,E,1,10,1.0,38.0,M,-13.6,M,,0000*40
$GPGGA,104233.000,3031.1001,N,11425.2704,E,1,10,1.0,38.0,M,-13.6,M,,0000*4A
$GPGGA,104234.000,3031.1087,N,11425.2741,E,1,10,1.0,37.9,M,-13.6,M,,0000*44
$GPGGA,104235.000,3031.1175,N,11425.2775,E,1,10,1.0,37.6,M,-13.6,M,,0000*41
$GPGGA,104236.000,3031.1255,N,11425.2811,E,1,10,1.0,37.9,M,-13.6,M,,0000*41
$GPGGA,104237.000,3031.1334,N,11425.2847,E,1,10,1.0,37.9,M,-13.6,M,,0000*45
$GPGGA,104238.000,3031.1414,N,11425.2879,E,1,10,1.0,37.9,M,-13.6,M,,0000*42
$GPGGA,104239.000,3031.1489,N,11425.2911,E,1,10,1.0,38.2,M,-13.6,M,,0000*4C
$GPGGA,104240.000,3031.1565,N,11425.2943,E,1,10,1.0,37.8,M,-13.6,M,,0000*43
$GPGGA,104241.000,3031.1640,N,11425.2973,E,1,10,1.0,37.4,M,-13.6,M,,0000*49
$GPGGA,104242.000,3031.1718,N,11425.3003,E,1,09,1.1,37.0,M,-13.6,M,,0000*44
$GPGGA,104243.000,3031.1794,N,11425.3033,E,1,10,1.0,37.1,M,-13.6,M,,0000*4A
$GPGGA,104244.000,3031.1870,N,11425.3062,E,1,09,1.1,37.0,M,-13.6,M,,0000*44
$GPGGA,104245.000,3031.1949,N,11425.3089,E,1,09,1.1,37.0,M,-13.6,M,,0000*4B
$GPGGA,104246.000,3031.2030,N,11425.3115,E,1,09,1.1,37.1,M,-13.6,M,,0000*49
$GPGGA,104247.000,3031.2114,N,11425.3142,E,1,09,1.1,37.3,M,-13.6,M,,0000*4F
$GPGGA,104248.000,3031.2198,N,11425.3172,E,1,09,1.1,38.0,M,-13.6,M,,0000*4B
$GPGGA,104249.000,3031.2282,N,11425.3199,E,1,09,1.1,38.7,M,-13.6,M,,0000*40
$GPGGA,104250.000,3031.2369,N,11425.3222,E,1,09,1.1,39.1,M,-13.6,M,,0000*48
$GPGGA,104251.000,3031.2455,N,11425.3241,E,1,09,1.1,39.1,M,-13.6,M,,0000*44
$GPGGA,104252.000,3031.2539,N,11425.3261,E,1,10,1.0,38.6,M,-13.6,M,,0000*41
$GPGGA,104253.000,3031.2620,N,11425.3280,E,1,10,1.0,39.3,M,-13.6,M,,0000*40
$GPGGA,104254.000,3031.2703,N,11425.3293,E,1,10,1.0,39.4,M,-13.6,M,,0000*42
$GPGGA,104255.000,3031.2789,N,11425.3305,E,1,10,1.0,39.5,M,-13.6,M,,0000*4E
$GPGGA,104256.000,3031.2877,N,11425.3315,E,1,10,1.0,39.5,M,-13.6,M,,0000*42
$GPGGA,104257.000,3031.2962,N,11425.3323,E,1,10,1.0,40.0,M,-13.6,M,,0000*48
$GPGGA,104258.000,3031.3044,N,11425.3330,E,1,10,1.0,40.0,M,-13.6,M,,0000*49
$GPGGA,104259.000,3031.3125,N,11425.3338,E,1,10,1.0,39.8,M,-13.6,M,,0000*40
$GPGGA,104300.000,3031.3206,N,11425.3346,E,1,09,1.1,39.9,M,-13.6,M,,0000*4E
$GPGGA,104301.000,3031.3287,N,11425.3355,E,1,09,1.1,40.1,M,-13.6,M,,0000*42
$GPGGA,104302.000,3031.3368,N,11425.3362,E,1,09,1.1,40.4,M,-13.6,M,,0000*40
$GPGGA,104303.000,3031.3451,N,11425.3364,E,1,09,1.1,40.4,M,-13.6,M,,0000*4A
$GPGGA,104304.000,3031.3537,N,11425.3364,E,1,09,1.1,40.4,M,-13.6,M,,0000*4C
$GPGGA,104305.000,3031.3625,N,11425.3367,E,1,09,1.1,40.1,M,-13.6,M,,0000*4B
$GPGGA,104306.000,3031.3717,N,11425.3373,E,1,09,1.1,39.6,M,-13.6,M,,0000*44
$GPGGA,104307.000,3031.3810,N,11425.3380,E,1,09,1.1,39.2,M,-13.6,M,,0000*45
$GPGGA,104308.000,3031.3908,N,11425.3388,E,1,09,1.1,38.9,M,-13.6,M,,0000*40
$GPGGA,104309.000,3031.4011,N,11425.3397,E,1,09,1.1,38.7,M,-13.6,M,,0000*47
$GPGGA,104310.000,3031.4114,N,11425.3407,E,1,09,1.1,38.7,M,-13.6,M,,0000*45
$GPGGA,104311.000,3031.4217,N,11425.3418,E,1,09,1.1,38.5,M,-13.6,M,,0000*48
$GPGGA,104312.000,3031.4320,N,11425.3428,E,1,09,1.1,37.9,M,-13.6,M,,0000*4E
$GPGGA,104313.000,3031.4422,N,11425.3437,E,1,09,1.1,36.7,M,-13.6,M,,0000*4B
$GPGGA,104314.000,3031.4526,N,11425.3451,E,1,09,1.1,36.1,M,-13.6,M,,0000*4F
$GPGGA,104315.000,3031.4632,N,11425.3465,E,1,09,1.1,35.7,M,-13.6,M,,0000*4A
$GPGGA,104316.000,3031.4739,N,11425.3478,E,1,09,1.1,34.9,M,-13.6,M,,0000*40
$GPGGA,104317.000,3031.4849,N,11425.3494,E,1,09,1.1,34.5,M,-13.6,M,,0000*47
$GPGGA,104318.000,3031.4958,N,11425.3507,E,1,09,1.1,34.3,M,-13.6,M,,0000*44
$GPGGA,104319.000,3031.5064,N,11425.3519,E,1,09,1.1,33.7,M,-13.6,M,,0000*4E
$GPGGA,104320.000,3031.5172,N,11425.3531,E,1,09,1.1,33.0,M,-13.6,M,,0000*4F
$GPGGA,104321.000,3031.5283,N,11425.3542,E,1,09,1.1,32.5,M,-13.6,M,,0000*43
$GPGGA,104322.000,3031.5393,N,11425.3553,E,1,09,1.1,31.9,M,-13.6,M,,0000*4F
$GPGGA,104323.000,3031.5501,N,11425.3564,E,1,09,1.1,31.7,M,-13.6,M,,0000*49
$GPGGA,104324.000,3031.5605,N,11425.3575,E,1,09,1.1,31.7,M,-13.6,M,,0000*49
$GPGGA,104325.000,3031.5709,N,11425.3589,E,1,11,0.9,31.9,M,-13.6,M,,0000*48
$GPGGA,104326.000,3031.5814,N,11425.3604,E,1,11,0.9,32.1,M,-13.6,M,,0000*45
$GPGGA,104327.000,3031.5918,N,11425.3620,E,1,11,0.9,32.0,M,-13.6,M,,0000*4E
$GPGGA,104328.000,3031.6023,N,11425.3636,E,1,11,0.9,32.1,M,-13.6,M,,0000*45
$GPGGA,104329.000,3031.6128,N,11425.3654,E,1,11,0.9,31.6,M,-13.6,M,,0000*4E
$GPGGA,104330.000,3031.6234,N,11425.3674,E,1,11,0.9,31.2,M,-13.6,M,,0000*4E
$GPGGA,104331.000,3031.6340,N,11425.3694,E,1,11,0.9,30.9,M,-13.6,M,,0000*49
$GPGGA,104332.000,3031.6447,N,11425.3715,E,1,10,1.0,30.8,M,-13.6,M,,0000*4A
$GPGGA,104333.000,3031.6553,N,11425.3736,E,1,11,0.9,30.8,M,-13.6,M,,0000*47
$GPGGA,104334.000,3031.6659,N,11425.3757,E,1,11,0.9,30.6,M,-13.6,M,,0000*40
$GPGGA,104335.000,3031.6765,N,11425.3778,E,1,11,0.9,30.5,M,-13.6,M,,0000*41
$GPGGA,104336.000,3031.6869,N,11425.3797,E,1,11,0.9,30.4,M,-13.6,M,,0000*41
$GPGGA,104337.000,3031.6972,N,11425.3815,E,1,11,0.9,30.5,M,-13.6,M,,0000*4F
$GPGGA,104338.000,3031.7073,N,11425.3832,E,1,11,0.9,30.7,M,-13.6,M,,0000*4E
$GPGGA,104339.000,3031.7174,N,11425.3850,E,1,10,1.0,30.7,M,-13.6,M,,0000*44
$GPGGA,104340.000,3031.7275,N,11425.3868,E,1,10,1.0,30.9,M,-13.6,M,,0000*4D
$GPGGA,104341.000,3031.7376,N,11425.3884,E,1,10,1.0,31.1,M,-13.6,M,,0000*45
$GPGGA,104342.000,3031.7477,N,11425.3900,E,1,08,1.1,31.0,M,-13.6,M,,0000*44
$GPGGA,104343.000,3031.7578,N,11425.3913,E,1,09,1.1,31.1,M,-13.6,M,,0000*49
$GPGGA,104344.000,3031.7677,N,11425.3922,E,1,05,5.5,31.3,M,-13.6,M,,0000*4E
$GPGGA,104345.000,3031.7777,N,11425.3930,E,6,00,50.0,31.3,M,-13.6,M,,0000*7A
$GPGGA,104346.000,3031.7876,N,11425.3937,E,6,00,50.0,31.3,M,-13.6,M,,0000*70
$GPGGA,104347.000,3031.7976,N,11425.3945,E,6,00,50.0,31.3,M,-13.6,M,,0000*75
$GPGGA,104348.000,3031.8075,N,11425.3952,E,6,00,50.0,31.3,M,-13.6,M,,0000*79
$GPGGA,104349.000,3031.8175,N,11425.3960,E,6,00,50.0,31.2,M,-13.6,M,,0000*79
$GPGGA,104350.000,3031.8274,N,11425.3967,E,6,00,50.0,31.2,M,-13.6,M,,0000*74
$GPGGA,104351.000,3031.8374,N,11425.3974,E,6,00,50.0,31.2,M,-13.6,M,,0000*76
$GPGGA,104352.000,3031.8473,N,11425.3982,E,6,00,50.0,31.2,M,-13.6,M,,0000*7C
$GPGGA,104353.000,3031.8573,N,11425.3989,E,6,00,50.0,31.2,M,-13.6,M,,0000*77
$GPGGA,104354.000,3031.8672,N,11425.3997,E,6,00,50.0,31.2,M,-13.6,M,,0000*7D
$GPGGA,104355.000,3031.8772,N,11425.4004,E,6,00,50.0,31.2,M,-13.6,M,,0000*79
$GPGGA,104356.000,,,,,0,00,50.0,,M,0.0,M,,0000*48
$GPGGA,104357.000,3031.8972,N,11425.3833,E,1,09,1.1,41.4,M,-13.6,M,,0000*44
$GPGGA,104358.063,3031.9079,N,11425.3776,E,1,09,1.1,23.4,M,-13.6,M,,0000*47
$GPGGA,104359.000,3031.9204,N,11425.3779,E,1,08,1.2,26.4,M,-13.6,M,,0000*43
$GPGGA,104400.000,3031.9277,N,11425.3733,E,1,08,1.2,32.8,M,-13.6,M,,0000*4B
$GPGGA,104401.000,3031.9367,N,11425.3703,E,1,04,4.6,34.9,M,-13.6,M,,0000*43
$GPGGA,104402.000,3031.9457,N,11425.3678,E,1,04,4.6,32.2,M,-13.6,M,,0000*44
$GPGGA,104403.000,3031.9546,N,11425.3651,E,6,00,50.0,30.4,M,-13.6,M,,0000*7F
$GPGGA,104404.000,3031.9634,N,11425.3624,E,6,00,50.0,28.7,M,-13.6,M,,0000*76
$GPGGA,104405.000,3031.9723,N,11425.3597,E,6,00,50.0,26.9,M,-13.6,M,,0000*7B
$GPGGA,104406.000,3031.9812,N,11425.3570,E,6,00,50.0,25.1,M,-13.6,M,,0000*77
$GPGGA,104407.000,3031.9900,N,11425.3543,E,6,00,50.0,23.3,M,-13.6,M,,0000*70
$GPGGA,104408.000,3031.9989,N,11425.3516,E,6,00,50.0,21.5,M,-13.6,M,,0000*7A
$GPGGA,104409.000,3032.0077,N,11425.3489,E,6,00,50.0,19.8,M,-13.6,M,,0000*78
$GPGGA,104410.000,3032.0166,N,11425.3462,E,6,00,50.0,18.0,M,-13.6,M,,0000*7D
$GPGGA,104411.000,3032.0254,N,11425.3435,E,6,00,50.0,16.2,M,-13.6,M,,0000*70
$GPGGA,104412.000,3032.0343,N,11425.3407,E,6,00,50.0,14.4,M,-13.6,M,,0000*71
$GPGGA,104413.000,3032.0431,N,11425.3380,E,6,00,50.0,12.7,M,-13.6,M,,0000*7F
$GPGGA,104414.000,3032.0520,N,11425.3353,E,6,00,50.0,10.9,M,-13.6,M,,0000*7B
$GPGGA,104415.000,3032.0608,N,11425.3326,E,6,00,50.0,9.1,M,-13.6,M,,0000*41
$GPGGA,104416.000,3032.0697,N,11425.3299,E,6,00,50.0,7.3,M,-13.6,M,,0000*4D
$GPGGA,104417.000,,,,,0,00,50.0,,M,0.0,M,,0000*4A
$GPGGA,104418.000,3032.0635,N,11425.2747,E,1,05,2.9,-46.0,M,-13.6,M,,0000*6B
$GPGGA,104419.063,3032.0652,N,11425.2563,E,1,07,1.3,3.2,M,-13.6,M,,0000*7F
$GPGGA,104420.000,3032.0702,N,11425.2481,E,1,07,1.3,8.2,M,-13.6,M,,0000*72
$GPGGA,104421.000,3032.0759,N,11425.2421,E,1,07,1.3,15.5,M,-13.6,M,,0000*4C
$GPGGA,104422.000,3032.0812,N,11425.2339,E,1,08,1.2,19.7,M,-13.6,M,,0000*41
$GPGGA,104423.000,3032.0861,N,11425.2255,E,1,08,1.2,22.2,M,-13.6,M,,0000*42
$GPGGA,104424.000,3032.0916,N,11425.2176,E,1,08,1.2,21.2,M,-13.6,M,,0000*45
$GPGGA,104425.000,3032.0967,N,11425.2091,E,1,08,1.2,20.8,M,-13.6,M,,0000*41
$GPGGA,104426.000,3032.1018,N,11425.2010,E,1,08,1.2,20.0,M,-13.6,M,,0000*43
$GPGGA,104427.000,3032.1064,N,11425.1924,E,1,08,1.2,18.9,M,-13.6,M,,0000*46
$GPGGA,104428.000,3032.1114,N,11425.1839,E,1,08,1.2,18.0,M,-13.6,M,,0000*4B
$GPGGA,104429.000,3032.1161,N,11425.1755,E,1,08,1.2,17.6,M,-13.6,M,,0000*44
$GPGGA,104430.000,3032.1207,N,11425.1670,E,1,08,1.2,17.5,M,-13.6,M,,0000*4A
$GPGGA,104431.000,3032.1249,N,11425.1587,E,1,08,1.2,17.9,M,-13.6,M,,0000*46
$GPGGA,104432.000,3032.1297,N,11425.1500,E,1,08,1.2,17.4,M,-13.6,M,,0000*44
$GPGGA,104433.000,3032.1346,N,11425.1414,E,1,08,1.2,17.1,M,-13.6,M,,0000*49
$GPGGA,104434.000,3032.1390,N,11425.1329,E,1,08,1.2,16.9,M,-13.6,M,,0000*45
$GPGGA,104435.000,3032.1435,N,11425.1245,E,1,08,1.2,16.9,M,-13.6,M,,0000*47
$GPGGA,104436.000,3032.1478,N,11425.1161,E,1,09,1.1,16.4,M,-13.6,M,,0000*47
$GPGGA,104437.000,3032.1524,N,11425.1075,E,1,09,1.1,16.1,M,-13.6,M,,0000*4F
$GPGGA,104438.000,3032.1571,N,11425.0991,E,1,09,1.1,16.5,M,-13.6,M,,0000*46
$GPGGA,104439.000,3032.1615,N,11425.0906,E,1,09,1.1,16.5,M,-13.6,M,,0000*48
$GPGGA,104440.000,3032.1660,N,11425.0820,E,1,09,1.1,16.2,M,-13.6,M,,0000*46
$GPGGA,104441.000,3032.1707,N,11425.0733,E,1,09,1.1,15.9,M,-13.6,M,,0000*42
$GPGGA,104442.000,3032.1754,N,11425.0647,E,1,09,1.1,15.5,M,-13.6,M,,0000*49
$GPGGA,104443.000,3032.1798,N,11425.0561,E,1,09,1.1,15.3,M,-13.6,M,,0000*49
$GPGGA,104444.000,3032.1844,N,11425.0475,E,1,09,1.1,14.8,M,-13.6,M,,0000*4E
$GPGGA,104445.000,3032.1890,N,11425.0389,E,1,09,1.1,14.8,M,-13.6,M,,0000*42
$GPGGA,104446.000,3032.1936,N,11425.0304,E,1,09,1.1,14.7,M,-13.6,M,,0000*46
$GPGGA,104447.000,3032.1981,N,11425.0219,E,1,09,1.1,14.6,M,-13.6,M,,0000*47
$GPGGA,104448.000,3032.2026,N,11425.0133,E,1,09,1.1,14.5,M,-13.6,M,,0000*47
$GPGGA,104449.000,3032.2071,N,11425.0048,E,1,08,1.2,14.7,M,-13.6,M,,0000*49
$GPGGA,104450.000,3032.2115,N,11424.9964,E,1,08,1.2,14.7,M,-13.6,M,,0000*4D
$GPGGA,104451.000,3032.2160,N,11424.9878,E,1,08,1.2,14.8,M,-13.6,M,,0000*4D
$GPGGA,104452.000,3032.2207,N,11424.9793,E,1,08,1.2,14.8,M,-13.6,M,,0000*46
$GPGGA,104453.000,3032.2253,N,11424.9709,E,1,08,1.2,14.9,M,-13.6,M,,0000*44
$GPGGA,104454.000,3032.2296,N,11424.9626,E,1,08,1.2,15.3,M,-13.6,M,,0000*4D
$GPGGA,104455.000,3032.2342,N,11424.9541,E,1,08,1.2,15.4,M,-13.6,M,,0000*41
$GPGGA,104456.000,3032.2389,N,11424.9457,E,1,08,1.2,15.1,M,-13.6,M,,0000*46
$GPGGA,104457.000,3032.2431,N,11424.9375,E,1,08,1.2,15.2,M,-13.6,M,,0000*47
$GPGGA,104458.000,3032.2475,N,11424.9293,E,1,08,1.2,15.3,M,-13.6,M,,0000*40
$GPGGA,104459.000,3032.2517,N,11424.9212,E,1,08,1.2,15.0,M,-13.6,M,,0000*4E
$GPGGA,104500.000,3032.2559,N,11424.9132,E,1,08,1.2,15.0,M,-13.6,M,,0000*48
$GPGGA,104501.000,3032.2601,N,11424.9052,E,1,08,1.2,15.1,M,-13.6,M,,0000*41
$GPGGA,104502.000,3032.2643,N,11424.8975,E,1,08,1.2,15.0,M,-13.6,M,,0000*48
$GPGGA,104503.000,3032.2684,N,11424.8897,E,1,08,1.2,15.1,M,-13.6,M,,0000*4E
$GPGGA,104504.000,3032.2725,N,11424.8822,E,1,09,1.1,14.8,M,-13.6,M,,0000*47
$GPGGA,104505.000,3032.2768,N,11424.8744,E,1,09,1.1,14.4,M,-13.6,M,,0000*4C
$GPGGA,104506.000,3032.2811,N,11424.8665,E,1,09,1.1,14.2,M,-13.6,M,,0000*4A
$GPGGA,104507.000,3032.2852,N,11424.8588,E,1,09,1.1,14.1,M,-13.6,M,,0000*4F
$GPGGA,104508.000,3032.2893,N,11424.8509,E,1,09,1.1,14.3,M,-13.6,M,,0000*46
$GPGGA,104509.000,3032.2936,N,11424.8430,E,1,09,1.1,14.0,M,-13.6,M,,0000*41
$GPGGA,104510.000,3032.2979,N,11424.8351,E,1,09,1.1,14.1,M,-13.6,M,,0000*43
$GPGGA,104511.000,3032.3022,N,11424.8271,E,1,09,1.1,13.7,M,-13.6,M,,0000*46
$GPGGA,104512.000,3032.3065,N,11424.8190,E,1,09,1.1,13.2,M,-13.6,M,,0000*4F
$GPGGA,104513.000,3032.3107,N,11424.8109,E,1,09,1.1,12.9,M,-13.6,M,,0000*41
$GPGGA,104514.000,3032.3150,N,11424.8026,E,1,09,1.1,12.6,M,-13.6,M,,0000*47
$GPGGA,104515.000,3032.3196,N,11424.7941,E,1,09,1.1,12.5,M,-13.6,M,,0000*48
$GPGGA,104516.000,3032.3243,N,11424.7855,E,1,09,1.1,12.4,M,-13.6,M,,0000*45
$GPGGA,104517.000,3032.3290,N,11424.7769,E,1,09,1.1,12.2,M,-13.6,M,,0000*4C
$GPGGA,104518.000,3032.3337,N,11424.7680,E,1,08,1.2,11.8,M,-13.6,M,,0000*42
$GPGGA,104519.000,3032.3381,N,11424.7590,E,1,07,1.2,12.0,M,-13.6,M,,0000*48
$GPGGA,104520.000,3032.3426,N,11424.7503,E,1,07,1.2,12.0,M,-13.6,M,,0000*42
$GPGGA,104521.000,3032.3472,N,11424.7416,E,1,05,2.8,11.9,M,-13.6,M,,0000*46
$GPGGA,104522.000,3032.3518,N,11424.7329,E,6,00,50.0,11.7,M,-13.6,M,,0000*70
$GPGGA,104523.000,3032.3564,N,11424.7242,E,6,00,50.0,11.6,M,-13.6,M,,0000*77
$GPGGA,104524.000,3032.3610,N,11424.7155,E,6,00,50.0,11.4,M,-13.6,M,,0000*77
$GPGGA,104525.000,3032.3656,N,11424.7068,E,6,00,50.0,11.2,M,-13.6,M,,0000*7D
$GPGGA,104526.000,3032.3702,N,11424.6981,E,6,00,50.0,11.0,M,-13.6,M,,0000*73
$GPGGA,104527.000,3032.3748,N,11424.6894,E,6,00,50.0,10.9,M,-13.6,M,,0000*71
$GPGGA,104528.000,3032.3794,N,11424.6807,E,6,00,50.0,10.7,M,-13.6,M,,0000*7B
$GPGGA,104529.000,3032.3840,N,11424.6720,E,6,00,50.0,10.5,M,-13.6,M,,0000*74
$GPGGA,104530.000,3032.3886,N,11424.6633,E,6,00,50.0,10.3,M,-13.6,M,,0000*73
$GPGGA,104531.000,3032.3932,N,11424.6546,E,6,00,50.0,10.2,M,-13.6,M,,0000*7C
$GPGGA,104532.000,3032.3978,N,11424.6459,E,6,00,50.0,10.0,M,-13.6,M,,0000*7C
$GPGGA,104533.000,3032.4023,N,11424.6372,E,6,00,50.0,9.8,M,-13.6,M,,0000*43
$GPGGA,104534.000,3032.4069,N,11424.6284,E,6,00,50.0,9.6,M,-13.6,M,,0000*4C
$GPGGA,104535.000,3032.4115,N,11424.6197,E,6,00,50.0,9.5,M,-13.6,M,,0000*45
$GPGGA,104536.000,,,,,0,00,50.0,,M,0.0,M,,0000*48
$GPGGA,104537.000,,,,,0,00,50.0,,M,0.0,M,,0000*49
$GPGGA,104538.067,,,,,0,00,50.0,,M,0.0,M,,0000*47
$GPGGA,104539.067,,,,,0,00,50.0,,M,0.0,M,,0000*46
$GPGGA,104540.066,,,,,0,00,50.0,,M,0.0,M,,0000*49
$GPGGA,104541.066,,,,,0,00,50.0,,M,0.0,M,,0000*48
$GPGGA,104542.065,,,,,0,00,50.0,,M,0.0,M,,0000*48
$GPGGA,104543.065,,,,,0,00,50.0,,M,0.0,M,,0000*49
$GPGGA,104544.064,,,,,0,00,50.0,,M,0.0,M,,0000*4F
$GPGGA,104545.064,,,,,0,00,50.0,,M,0.0,M,,0000*4E
$GPGGA,104546.064,,,,,0,00,50.0,,M,0.0,M,,0000*4D
$GPGGA,104547.064,,,,,0,00,50.0,,M,0.0,M,,0000*4C
$GPGGA,104548.067,,,,,0,00,50.0,,M,0.0,M,,0000*40
$GPGGA,104549.067,,,,,0,00,50.0,,M,0.0,M,,0000*41
$GPGGA,104550.066,,,,,0,00,50.0,,M,0.0,M,,0000*48
$GPGGA,104551.065,,,,,0,00,50.0,,M,0.0,M,,0000*4A
$GPGGA,104552.066,,,,,0,00,50.0,,M,0.0,M,,0000*4A
$GPGGA,104553.068,,,,,0,00,50.0,,M,0.0,M,,0000*45
$GPGGA,104554.066,,,,,0,00,50.0,,M,0.0,M,,0000*4C
$GPGGA,104555.064,,,,,0,00,50.0,,M,0.0,M,,0000*4F
$GPGGA,104556.064,,,,,0,00,50.0,,M,0.0,M,,0000*4C
$GPGGA,104557.064,,,,,0,00,50.0,,M,0.0,M,,0000*4D
$GPGGA,104558.064,,,,,0,00,50.0,,M,0.0,M,,0000*42
$GPGGA,104559.064,,,,,0,00,50.0,,M,0.0,M,,0000*43
$GPGGA,104600.063,,,,,0,00,50.0,,M,0.0,M,,0000*4B
$GPGGA,104601.065,,,,,0,00,50.0,,M,0.0,M,,0000*4C
$GPGGA,104602.066,,,,,0,00,50.0,,M,0.0,M,,0000*4C
$GPGGA,104603.066,,,,,0,00,50.0,,M,0.0,M,,0000*4D
$GPGGA,104604.066,,,,,0,00,50.0,,M,0.0,M,,0000*4A
$GPGGA,104605.066,,,,,0,00,50.0,,M,0.0,M,,0000*4B
$GPGGA,104606.067,,,,,0,00,50.0,,M,0.0,M,,0000*49
$GPGGA,104607.066,,,,,0,00,50.0,,M,0.0,M,,0000*49
$GPGGA,104608.064,,,,,0,00,50.0,,M,0.0,M,,0000*44
$GPGGA,104609.064,,,,,0,00,50.0,,M,0.0,M,,0000*45
$GPGGA,104610.063,,,,,0,00,50.0,,M,0.0,M,,0000*4A
$GPGGA,104611.065,,,,,0,00,50.0,,M,0.0,M,,0000*4D
$GPGGA,104612.064,,,,,0,00,50.0,,M,0.0,M,,0000*4F
$GPGGA,104613.064,,,,,0,00,50.0,,M,0.0,M,,0000*4E
$GPGGA,104614.064,,,,,0,00,50.0,,M,0.0,M,,0000*49
$GPGGA,104615.065,,,,,0,00,50.0,,M,0.0,M,,0000*49
$GPGGA,104616.068,,,,,0,00,50.0,,M,0.0,M,,0000*47
$GPGGA,104617.066,,,,,0,00,50.0,,M,0.0,M,,0000*48
$GPGGA,104618.066,,,,,0,00,50.0,,M,0.0,M,,0000*47
$GPGGA,104619.067,,,,,0,00,50.0,,M,0.0,M,,0000*47
$GPGGA,104620.067,,,,,0,00,50.0,,M,0.0,M,,0000*4D
$GPGGA,104621.066,,,,,0,00,50.0,,M,0.0,M,,0000*4D
$GPGGA,104622.065,,,,,0,00,50.0,,M,0.0,M,,0000*4D
$GPGGA,104623.063,,,,,0,00,50.0,,M,0.0,M,,0000*4A
$GPGGA,104624.065,,,,,0,00,50.0,,M,0.0,M,,0000*4B
$GPGGA,104625.064,,,,,0,00,50.0,,M,0.0,M,,0000*4B
$GPGGA,104626.064,,,,,0,00,50.0,,M,0.0,M,,0000*48
$GPGGA,104627.064,,,,,0,00,50.0,,M,0.0,M,,0000*49
$GPGGA,104628.065,,,,,0,00,50.0,,M,0.0,M,,0000*47
$GPGGA,104629.067,,,,,0,00,50.0,,M,0.0,M,,0000*44
$GPGGA,104630.066,,,,,0,00,50.0,,M,0.0,M,,0000*4D
$GPGGA,104631.066,,,,,0,00,50.0,,M,0.0,M,,0000*4C
$GPGGA,104632.066,,,,,0,00,50.0,,M,0.0,M,,0000*4F
$GPGGA,104633.065,,,,,0,00,50.0,,M,0.0,M,,0000*4D
$GPGGA,104634.067,,,,,0,00,50.0,,M,0.0,M,,0000*48
$GPGGA,104635.065,,,,,0,00,50.0,,M,0.0,M,,0000*4B
$GPGGA,104636.065,,,,,0,00,50.0,,M,0.0,M,,0000*48
$GPGGA,104637.064,,,,,0,00,50.0,,M,0.0,M,,0000*48
$GPGGA,104638.064,,,,,0,00,50.0,,M,0.0,M,,0000*47
$GPGGA,104639.065,,,,,0,00,50.0,,M,0.0,M,,0000*47
$GPGGA,104640.064,,,,,0,00,50.0,,M,0.0,M,,0000*48
$GPGGA,104641.064,,,,,0,00,50.0,,M,0.0,M,,0000*49
$GPGGA,104642.065,,,,,0,00,50.0,,M,0.0,M,,0000*4B
$GPGGA,104643.066,,,,,0,00,50.0,,M,0.0,M,,0000*49
$GPGGA,104644.067,,,,,0,00,50.0,,M,0.0,M,,0000*4F
$GPGGA,104645.066,,,,,0,00,50.0,,M,0.0,M,,0000*4F
$GPGGA,104646.065,,,,,0,00,50.0,,M,0.0,M,,0000*4F
$GPGGA,104647.066,,,,,0,00,50.0,,M,0.0,M,,0000*4D
$GPGGA,104648.065,,,,,0,00,50.0,,M,0.0,M,,0000*41
$GPGGA,104649.065,,,,,0,00,50.0,,M,0.0,M,,0000*40
$GPGGA,104650.064,,,,,0,00,50.0,,M,0.0,M,,0000*49
$GPGGA,104651.063,,,,,0,00,50.0,,M,0.0,M,,0000*4F
$GPGGA,104652.066,,,,,0,00,50.0,,M,0.0,M,,0000*49
$GPGGA,104653.065,,,,,0,00,50.0,,M,0.0,M,,0000*4B
$GPGGA,104654.064,,,,,0,00,50.0,,M,0.0,M,,0000*4D
$GPGGA,104655.065,,,,,0,00,50.0,,M,0.0,M,,0000*4D
$GPGGA,104656.065,,,,,0,00,50.0,,M,0.0,M,,0000*4E
$GPGGA,104657.067,,,,,0,00,50.0,,M,0.0,M,,0000*4D
$GPGGA,104658.066,,,,,0,00,50.0,,M,0.0,M,,0000*43
$GPGGA,104659.066,,,,,0,00,50.0,,M,0.0,M,,0000*42
$GPGGA,104700.066,,,,,0,00,50.0,,M,0.0,M,,0000*4F
$GPGGA,104701.066,,,,,0,00,50.0,,M,0.0,M,,0000*4E
$GPGGA,104702.066,,,,,0,00,50.0,,M,0.0,M,,0000*4D
$GPGGA,104703.065,,,,,0,00,50.0,,M,0.0,M,,0000*4F
$GPGGA,104704.063,,,,,0,00,50.0,,M,0.0,M,,0000*4E
$GPGGA,104705.064,,,,,0,00,50.0,,M,0.0,M,,0000*48
$GPGGA,104706.064,,,,,0,00,50.0,,M,0.0,M,,0000*4B
$GPGGA,104707.064,,,,,0,00,50.0,,M,0.0,M,,0000*4A
$GPGGA,104708.064,,,,,0,00,50.0,,M,0.0,M,,0000*45
$GPGGA,104709.063,,,,,0,00,50.0,,M,0.0,M,,0000*43
$GPGGA,104710.066,,,,,0,00,50.0,,M,0.0,M,,0000*4E
$GPGGA,104711.065,,,,,0,00,50.0,,M,0.0,M,,0000*4C
$GPGGA,104712.066,,,,,0,00,50.0,,M,0.0,M,,0000*4C
$GPGGA,104713.065,,,,,0,00,50.0,,M,0.0,M,,0000*4E
$GPGGA,104714.065,,,,,0,00,50.0,,M,0.0,M,,0000*49
$GPGGA,104715.069,,,,,0,00,50.0,,M,0.0,M,,0000*44
$GPGGA,104716.066,,,,,0,00,50.0,,M,0.0,M,,0000*48
$GPGGA,104717.065,,,,,0,00,50.0,,M,0.0,M,,0000*4A
$GPGGA,104718.064,,,,,0,00,50.0,,M,0.0,M,,0000*44
$GPGGA,104719.064,,,,,0,00,,,M,0.0,M,,0000*5E
$GPGGA,104720.065,,,,,0,00,,,M,0.0,M,,0000*55
$GPGGA,104721.063,,,,,0,00,,,M,0.0,M,,0000*52
$GPGGA,104722.063,,,,,0,00,,,M,0.0,M,,0000*51
$GPGGA,104723.065,,,,,0,00,,,M,0.0,M,,0000*56
$GPGGA,104724.066,,,,,0,00,,,M,0.0,M,,0000*52
$GPGGA,104725.067,,,,,0,00,,,M,0.0,M,,0000*52
$GPGGA,104726.066,,,,,0,00,,,M,0.0,M,,0000*50
$GPGGA,104727.065,,,,,0,00,,,M,0.0,M,,0000*52
$GPGGA,104728.067,,,,,0,00,,,M,0.0,M,,0000*5F
$GPGGA,104729.067,,,,,0,00,,,M,0.0,M,,0000*5E
$GPGGA,104730.065,,,,,0,00,,,M,0.0,M,,0000*54
$GPGGA,104731.064,,,,,0,00,,,M,0.0,M,,0000*54
$GPGGA,104732.064,,,,,0,00,,,M,0.0,M,,0000*57
$GPGGA,104733.067,,,,,0,00,,,M,0.0,M,,0000*55
$GPGGA,104734.064,,,,,0,00,,,M,0.0,M,,0000*51
$GPGGA,104735.064,,,,,0,00,,,M,0.0,M,,0000*50
$GPGGA,104736.064,,,,,0,00,,,M,0.0,M,,0000*53
$GPGGA,104737.065,,,,,0,00,,,M,0.0,M,,0000*53
$GPGGA,104738.067,,,,,0,00,,,M,0.0,M,,0000*5E
$GPGGA,104739.066,,,,,0,00,,,M,0.0,M,,0000*5E
$GPGGA,104740.066,,,,,0,00,,,M,0.0,M,,0000*50
$GPGGA,104741.066,,,,,0,00,,,M,0.0,M,,0000*51
$GPGGA,104742.066,,,,,0,00,,,M,0.0,M,,0000*52
$GPGGA,104743.066,,,,,0,00,,,M,0.0,M,,0000*53
$GPGGA,104744.066,,,,,0,00,,,M,0.0,M,,0000*54
$GPGGA,104745.064,,,,,0,00,,,M,0.0,M,,0000*57
$GPGGA,104746.066,,,,,0,00,,,M,0.0,M,,0000*56
$GPGGA,104747.065,,,,,0,00,,,M,0.0,M,,0000*54
$GPGGA,104748.065,,,,,0,00,,,M,0.0,M,,0000*5B
$GPGGA,104749.065,,,,,0,00,,,M,0.0,M,,0000*5A
$GPGGA,104750.064,,,,,0,00,,,M,0.0,M,,0000*53
$GPGGA,104751.067,,,,,0,00,,,M,0.0,M,,0000*51
$GPGGA,104752.066,,,,,0,00,,,M,0.0,M,,0000*53
$GPGGA,104753.067,,,,,0,00,,,M,0.0,M,,0000*53
$GPGGA,104754.067,,,,,0,00,,,M,0.0,M,,0000*54
$GPGGA,104755.067,,,,,0,00,,,M,0.0,M,,0000*55
$GPGGA,104756.068,,,,,0,00,,,M,0.0,M,,0000*59
$GPGGA,104757.066,,,,,0,00,,,M,0.0,M,,0000*56
$GPGGA,104758.066,,,,,0,00,,,M,0.0,M,,0000*59
$GPGGA,104759.065,,,,,0,00,,,M,0.0,M,,0000*5B
$GPGGA,104800.066,,,,,0,00,,,M,0.0,M,,0000*5B
$GPGGA,104801.065,,,,,0,00,,,M,0.0,M,,0000*59
$GPGGA,104802.065,,,,,0,00,,,M,0.0,M,,0000*5A
$GPGGA,104803.064,,,,,0,00,,,M,0.0,M,,0000*5A
$GPGGA,104804.064,,,,,0,00,,,M,0.0,M,,0000*5D
$GPGGA,104805.066,,,,,0,00,,,M,0.0,M,,0000*5E
$GPGGA,104806.066,,,,,0,00,,,M,0.0,M,,0000*5D
$GPGGA,104807.066,,,,,0,00,,,M,0.0,M,,0000*5C
$GPGGA,104808.066,,,,,0,00,,,M,0.0,M,,0000*53
$GPGGA,104809.069,,,,,0,00,,,M,0.0,M,,0000*5D
$GPGGA,104810.066,,,,,0,00,,,M,0.0,M,,0000*5A
$GPGGA,104811.067,,,,,0,00,,,M,0.0,M,,0000*5A
$GPGGA,104812.065,,,,,0,00,,,M,0.0,M,,0000*5B
$GPGGA,104813.064,,,,,0,00,,,M,0.0,M,,0000*5B
$GPGGA,104814.066,,,,,0,00,,,M,0.0,M,,0000*5E
