$GPGGA,231901.000,3037.9551,N,11418.1857,E,1,07,2.4,30.6,M,-14.1,M,,0000*40
$GPGGA,231902.000,3037.9551,N,11418.1857,E,1,06,3.4,30.6,M,-14.1,M,,0000*43
$GPGGA,231903.000,3037.9552,N,11418.1855,E,1,06,3.4,30.8,M,-14.1,M,,0000*4D
$GPGGA,231904.000,3037.9552,N,11418.1853,E,1,06,3.4,31.1,M,-14.1,M,,0000*44
$GPGGA,231905.000,3037.9552,N,11418.1853,E,1,06,3.4,31.1,M,-14.1,M,,0000*45
$GPGGA,231906.000,3037.9552,N,11418.1853,E,1,06,3.4,31.1,M,-14.1,M,,0000*46
$GPGGA,231907.000,3037.9551,N,11418.1857,E,1,06,3.4,30.7,M,-14.1,M,,0000*47
$GPGGA,231908.000,3037.9548,N,11418.1859,E,1,06,3.4,30.4,M,-14.1,M,,0000*4D
$GPGGA,231909.000,3037.9549,N,11418.1859,E,1,06,3.4,30.4,M,-14.1,M,,0000*4D
$GPGGA,231910.000,3037.9548,N,11418.1858,E,1,06,3.4,30.6,M,-14.1,M,,0000*47
$GPGGA,231911.000,3037.9547,N,11418.1857,E,1,07,2.4,31.4,M,-14.1,M,,0000*45
$GPGGA,231912.000,3037.9547,N,11418.1857,E,1,07,2.4,31.4,M,-14.1,M,,0000*46
$GPGGA,231913.000,3037.9547,N,11418.1857,E,1,07,2.4,31.4,M,-14.1,M,,0000*47
$GPGGA,231914.000,3037.9547,N,11418.1857,E,1,07,2.4,31.4,M,-14.1,M,,0000*40
$GPGGA,231915.000,3037.9547,N,11418.1858,E,1,07,2.4,31.4,M,-14.1,M,,0000*4E
$GPGGA,231916.000,3037.9547,N,11418.1858,E,1,07,2.4,31.4,M,-14.1,M,,0000*4D
$GPGGA,231917.000,3037.9547,N,11418.1858,E,1,07,2.4,31.4,M,-14.1,M,,0000*4C
$GPGGA,231918.000,3037.9547,N,11418.1858,E,1,07,2.4,31.4,M,-14.1,M,,0000*43
$GPGGA,231919.000,3037.9547,N,11418.1858,E,1,07,2.4,31.4,M,-14.1,M,,0000*42
$GPGGA,231920.000,3037.9547,N,11418.1858,E,1,07,2.4,31.4,M,-14.1,M,,0000*48
$GPGGA,231921.000,3037.9547,N,11418.1858,E,1,07,2.4,31.4,M,-14.1,M,,0000*49
$GPGGA,231922.000,3037.9547,N,11418.1858,E,1,07,2.4,31.3,M,-14.1,M,,0000*4D
$GPGGA,231923.000,3037.9547,N,11418.1858,E,1,07,2.4,31.3,M,-14.1,M,,0000*4C
$GPGGA,231924.000,3037.9547,N,11418.1858,E,1,07,2.4,31.3,M,-14.1,M,,0000*4B
$GPGGA,231925.000,3037.9547,N,11418.1859,E,1,08,1.2,31.3,M,-14.1,M,,0000*41
$GPGGA,231926.000,3037.9547,N,11418.1859,E,1,08,1.2,31.2,M,-14.1,M,,0000*43
$GPGGA,231927.000,3037.9547,N,11418.1859,E,1,08,1.2,31.2,M,-14.1,M,,0000*42
$GPGGA,231928.000,3037.9546,N,11418.1859,E,1,08,1.2,31.1,M,-14.1,M,,0000*4F
$GPGGA,231929.000,3037.9546,N,11418.1860,E,1,08,1.2,31.1,M,-14.1,M,,0000*44
$GPGGA,231930.000,3037.9539,N,11418.1881,E,1,08,1.2,30.5,M,-14.1,M,,0000*4E
$GPGGA,231931.000,3037.9539,N,11418.1882,E,1,08,1.2,30.5,M,-14.1,M,,0000*4C
$GPGGA,231932.000,3037.9539,N,11418.1882,E,1,08,1.2,30.5,M,-14.1,M,,0000*4F
$GPGGA,231933.000,3037.9536,N,11418.1893,E,1,08,1.2,31.3,M,-14.1,M,,0000*46
$GPGGA,231934.000,3037.9536,N,11418.1894,E,1,08,1.2,31.3,M,-14.1,M,,0000*46
$GPGGA,231935.000,3037.9536,N,11418.1894,E,1,08,1.2,31.3,M,-14.1,M,,0000*47
$GPGGA,231936.000,3037.9536,N,11418.1894,E,1,08,1.2,31.3,M,-14.1,M,,0000*44
$GPGGA,231937.000,3037.9534,N,11418.1905,E,1,08,1.2,31.5,M,-14.1,M,,0000*48
$GPGGA,231938.000,3037.9531,N,11418.1912,E,1,08,1.2,31.7,M,-14.1,M,,0000*46
$GPGGA,231939.000,3037.9532,N,11418.1918,E,1,08,1.2,31.7,M,-14.1,M,,0000*4E
$GPGGA,231940.000,3037.9535,N,11418.1921,E,1,08,1.2,31.8,M,-14.1,M,,0000*42
$GPGGA,231941.000,3037.9536,N,11418.1921,E,1,08,1.2,32.2,M,-14.1,M,,0000*49
$GPGGA,231942.000,3037.9538,N,11418.1924,E,1,08,1.2,32.3,M,-14.1,M,,0000*40
$GPGGA,231943.000,3037.9540,N,11418.1923,E,1,08,1.2,32.8,M,-14.1,M,,0000*42
$GPGGA,231944.000,3037.9542,N,11418.1923,E,1,08,1.2,33.1,M,-14.1,M,,0000*4F
$GPGGA,231945.000,3037.9543,N,11418.1921,E,1,08,1.2,33.0,M,-14.1,M,,0000*4C
$GPGGA,231946.000,3037.9547,N,11418.1921,E,1,08,1.2,33.2,M,-14.1,M,,0000*49
$GPGGA,231947.000,3037.9552,N,11418.1928,E,1,08,1.2,32.7,M,-14.1,M,,0000*41
$GPGGA,231948.000,3037.9563,N,11418.1935,E,1,08,1.2,32.2,M,-14.1,M,,0000*45
$GPGGA,231949.000,3037.9575,N,11418.1945,E,1,08,1.2,31.9,M,-14.1,M,,0000*4C
$GPGGA,231950.000,3037.9588,N,11418.1964,E,1,08,1.2,31.7,M,-14.1,M,,0000*4B
$GPGGA,231951.000,3037.9604,N,11418.1989,E,1,08,1.2,31.1,M,-14.1,M,,0000*48
$GPGGA,231952.000,3037.9620,N,11418.2014,E,1,08,1.2,30.8,M,-14.1,M,,0000*4B
$GPGGA,231953.000,3037.9634,N,11418.2037,E,1,08,1.2,30.8,M,-14.1,M,,0000*4E
$GPGGA,231954.000,3037.9650,N,11418.2061,E,1,08,1.2,30.8,M,-14.1,M,,0000*48
$GPGGA,231955.000,3037.9668,N,11418.2092,E,1,08,1.2,30.8,M,-14.1,M,,0000*4E
$GPGGA,231956.000,3037.9688,N,11418.2130,E,1,08,1.2,30.6,M,-14.1,M,,0000*44
$GPGGA,231957.000,3037.9707,N,11418.2170,E,1,08,1.2,30.9,M,-14.1,M,,0000*48
$GPGGA,231958.000,3037.9728,N,11418.2211,E,1,08,1.2,31.1,M,-14.1,M,,0000*47
$GPGGA,231959.000,3037.9753,N,11418.2258,E,1,07,2.4,31.1,M,-14.1,M,,0000*4D
$GPGGA,232000.000,3037.9776,N,11418.2308,E,1,07,2.4,31.2,M,-14.1,M,,0000*4B
$GPGGA,232001.000,3037.9801,N,11418.2358,E,1,07,2.4,31.0,M,-14.1,M,,0000*42
$GPGGA,232002.000,3037.9823,N,11418.2403,E,1,07,2.4,31.0,M,-14.1,M,,0000*48
$GPGGA,232003.000,3037.9839,N,11418.2454,E,1,07,2.4,30.8,M,-14.1,M,,0000*49
$GPGGA,232004.000,3037.9859,N,11418.2491,E,1,07,2.4,31.1,M,-14.1,M,,0000*49
$GPGGA,232005.000,3037.9882,N,11418.2529,E,1,07,2.4,31.3,M,-14.1,M,,0000*4E
$GPGGA,232006.000,3037.9905,N,11418.2566,E,1,07,2.5,31.5,M,-14.1,M,,0000*4F
$GPGGA,232007.000,3037.9921,N,11418.2617,E,1,07,2.5,31.5,M,-14.1,M,,0000*4D
$GPGGA,232008.000,3037.9939,N,11418.2673,E,1,08,1.2,31.3,M,-14.1,M,,0000*44
$GPGGA,232009.000,3037.9966,N,11418.2710,E,1,08,1.2,31.7,M,-14.1,M,,0000*4F
$GPGGA,232010.000,3037.9993,N,11418.2752,E,1,08,1.2,32.0,M,-14.1,M,,0000*4F
$GPGGA,232011.000,3038.0022,N,11418.2805,E,1,08,1.2,32.3,M,-14.1,M,,0000*45
$GPGGA,232012.000,3038.0050,N,11418.2871,E,1,08,1.2,32.7,M,-14.1,M,,0000*44
$GPGGA,232013.000,3038.0080,N,11418.2933,E,1,08,1.2,32.9,M,-14.1,M,,0000*41
$GPGGA,232014.000,3038.0110,N,11418.2994,E,1,08,1.2,33.3,M,-14.1,M,,0000*48
$GPGGA,232015.000,3038.0137,N,11418.3046,E,1,08,1.2,33.5,M,-14.1,M,,0000*4D
$GPGGA,232016.000,3038.0167,N,11418.3087,E,1,08,1.2,33.5,M,-14.1,M,,0000*46
$GPGGA,232017.000,3038.0195,N,11418.3125,E,1,08,1.2,34.5,M,-14.1,M,,0000*44
$GPGGA,232018.000,3038.0218,N,11418.3160,E,1,08,1.2,34.9,M,-14.1,M,,0000*40
$GPGGA,232019.000,3038.0240,N,11418.3203,E,1,08,1.2,34.7,M,-14.1,M,,0000*44
$GPGGA,232020.000,3038.0265,N,11418.3251,E,1,08,1.2,34.4,M,-14.1,M,,0000*4D
$GPGGA,232021.000,3038.0294,N,11418.3299,E,1,08,1.2,34.1,M,-14.1,M,,0000*43
$GPGGA,232022.000,3038.0327,N,11418.3349,E,1,08,1.2,34.0,M,-14.1,M,,0000*44
$GPGGA,232023.000,3038.0361,N,11418.3403,E,1,08,1.2,33.8,M,-14.1,M,,0000*41
$GPGGA,232024.000,3038.0395,N,11418.3460,E,1,08,1.2,33.4,M,-14.1,M,,0000*44
$GPGGA,232025.000,3038.0429,N,11418.3523,E,1,08,1.2,33.3,M,-14.1,M,,0000*44
$GPGGA,232026.000,3038.0463,N,11418.3594,E,1,08,1.2,32.6,M,-14.1,M,,0000*41
$GPGGA,232027.000,3038.0497,N,11418.3672,E,1,08,1.2,32.2,M,-14.1,M,,0000*44
$GPGGA,232028.000,3038.0532,N,11418.3755,E,1,08,1.2,31.8,M,-14.1,M,,0000*48
$GPGGA,232029.000,3038.0569,N,11418.3838,E,1,08,1.2,31.0,M,-14.1,M,,0000*4B
$GPGGA,232030.000,3038.0611,N,11418.3922,E,1,08,1.2,30.9,M,-14.1,M,,0000*4D
$GPGGA,232031.000,3038.0653,N,11418.4011,E,1,08,1.2,30.2,M,-14.1,M,,0000*4F
$GPGGA,232032.000,3038.0698,N,11418.4104,E,1,08,1.2,29.8,M,-14.1,M,,0000*4C
$GPGGA,232033.000,3038.0743,N,11418.4199,E,1,08,1.2,29.5,M,-14.1,M,,0000*43
$GPGGA,232034.000,3038.0789,N,11418.4297,E,1,08,1.2,28.6,M,-14.1,M,,0000*4D
$GPGGA,232035.000,3038.0834,N,11418.4400,E,1,08,1.2,28.3,M,-14.1,M,,0000*48
$GPGGA,232036.000,3038.0877,N,11418.4504,E,1,07,1.4,27.8,M,-14.1,M,,0000*44
$GPGGA,232037.000,3038.0916,N,11418.4613,E,1,08,1.2,26.7,M,-14.1,M,,0000*41
$GPGGA,232038.000,3038.0954,N,11418.4726,E,1,08,1.2,25.6,M,-14.1,M,,0000*4D
$GPGGA,232039.000,3038.0990,N,11418.4839,E,1,08,1.2,24.2,M,-14.1,M,,0000*40
$GPGGA,232040.000,3038.1024,N,11418.4950,E,1,08,1.2,22.8,M,-14.1,M,,0000*4B
$GPGGA,232041.000,3038.1055,N,11418.5065,E,1,08,1.2,21.5,M,-14.1,M,,0000*4C
$GPGGA,232042.000,3038.1084,N,11418.5178,E,1,08,1.2,19.8,M,-14.1,M,,0000*48
$GPGGA,232043.000,3038.1112,N,11418.5287,E,1,08,1.2,19.0,M,-14.1,M,,0000*4C
$GPGGA,232044.000,3038.1144,N,11418.5396,E,1,08,1.2,18.9,M,-14.1,M,,0000*41
$GPGGA,232045.000,3038.1175,N,11418.5500,E,1,08,1.2,19.6,M,-14.1,M,,0000*45
$GPGGA,232046.000,3038.1203,N,11418.5606,E,1,08,1.2,20.1,M,-14.1,M,,0000*4C
$GPGGA,232047.000,3038.1231,N,11418.5710,E,1,08,1.2,20.8,M,-14.1,M,,0000*43
$GPGGA,232048.000,3038.1260,N,11418.5817,E,1,07,1.3,21.5,M,-14.1,M,,0000*42
$GPGGA,232049.000,3038.1285,N,11418.5919,E,1,08,1.2,21.8,M,-14.1,M,,0000*44
$GPGGA,232050.000,3038.1309,N,11418.6019,E,1,08,1.2,22.8,M,-14.1,M,,0000*40
$GPGGA,232051.000,3038.1334,N,11418.6124,E,1,07,2.5,23.3,M,-14.1,M,,0000*41
$GPGGA,232052.000,3038.1358,N,11418.6229,E,1,07,2.5,23.8,M,-14.1,M,,0000*4D
$GPGGA,232053.000,3038.1386,N,11418.6337,E,1,08,1.2,24.3,M,-14.1,M,,0000*46
$GPGGA,232054.000,3038.1413,N,11418.6440,E,1,08,1.2,25.5,M,-14.1,M,,0000*4A
$GPGGA,232055.000,3038.1440,N,11418.6548,E,1,08,1.2,26.5,M,-14.1,M,,0000*47
$GPGGA,232056.000,3038.1469,N,11418.6658,E,1,08,1.2,27.6,M,-14.1,M,,0000*4F
$GPGGA,232057.000,3038.1498,N,11418.6765,E,1,08,1.2,28.6,M,-14.1,M,,0000*40
$GPGGA,232058.000,3038.1524,N,11418.6878,E,1,08,1.2,28.1,M,-14.1,M,,0000*4D
$GPGGA,232059.000,3038.1549,N,11418.6986,E,1,08,1.2,28.3,M,-14.1,M,,0000*45
$GPGGA,232100.000,3038.1573,N,11418.7096,E,1,08,1.2,28.0,M,-14.1,M,,0000*4B
$GPGGA,232101.000,3038.1599,N,11418.7204,E,1,08,1.2,28.2,M,-14.1,M,,0000*45
$GPGGA,232102.000,3038.1624,N,11418.7313,E,1,08,1.2,28.3,M,-14.1,M,,0000*45
$GPGGA,232103.000,3038.1651,N,11418.7425,E,1,08,1.2,27.8,M,-14.1,M,,0000*40
$GPGGA,232104.000,3038.1677,N,11418.7535,E,1,08,1.2,28.0,M,-14.1,M,,0000*44
$GPGGA,232105.000,3038.1700,N,11418.7642,E,1,08,1.2,28.1,M,-14.1,M,,0000*46
$GPGGA,232106.000,3038.1724,N,11418.7751,E,1,08,1.2,27.2,M,-14.1,M,,0000*4C
$GPGGA,232107.000,3038.1750,N,11418.7852,E,1,08,1.2,27.6,M,-14.1,M,,0000*46
$GPGGA,232108.000,3038.1773,N,11418.7951,E,1,08,1.2,26.5,M,-14.1,M,,0000*48
$GPGGA,232109.000,3038.1797,N,11418.8047,E,1,08,1.2,26.5,M,-14.1,M,,0000*42
$GPGGA,232110.000,3038.1821,N,11418.8145,E,1,07,2.5,26.3,M,-14.1,M,,0000*46
$GPGGA,232111.000,3038.1843,N,11418.8241,E,1,08,1.2,26.5,M,-14.1,M,,0000*49
$GPGGA,232112.000,3038.1866,N,11418.8333,E,1,08,1.2,27.0,M,-14.1,M,,0000*4D
$GPGGA,232113.000,3038.1891,N,11418.8424,E,1,08,1.2,28.3,M,-14.1,M,,0000*49
$GPGGA,232114.000,3038.1916,N,11418.8519,E,1,08,1.2,29.1,M,-14.1,M,,0000*4C
$GPGGA,232115.000,3038.1942,N,11418.8616,E,1,08,1.2,29.9,M,-14.1,M,,0000*48
$GPGGA,232116.000,3038.1968,N,11418.8713,E,1,08,1.2,30.3,M,-14.1,M,,0000*45
$GPGGA,232117.000,3038.1993,N,11418.8811,E,1,08,1.2,30.6,M,-14.1,M,,0000*48
$GPGGA,232118.000,3038.2020,N,11418.8908,E,1,08,1.2,31.1,M,-14.1,M,,0000*4A
$GPGGA,232119.000,3038.2048,N,11418.9005,E,1,08,1.2,31.2,M,-14.1,M,,0000*43
$GPGGA,232120.000,3038.2077,N,11418.9100,E,1,08,1.2,31.3,M,-14.1,M,,0000*40
$GPGGA,232121.000,3038.2110,N,11418.9197,E,1,08,1.2,31.6,M,-14.1,M,,0000*4A
$GPGGA,232122.000,3038.2146,N,11418.9293,E,1,08,1.2,32.1,M,-14.1,M,,0000*49
$GPGGA,232123.000,3038.2183,N,11418.9390,E,1,08,1.2,32.3,M,-14.1,M,,0000*41
$GPGGA,232124.000,3038.2223,N,11418.9486,E,1,08,1.2,33.1,M,-14.1,M,,0000*4C
$GPGGA,232125.000,3038.2265,N,11418.9579,E,1,08,1.2,34.0,M,-14.1,M,,0000*48
$GPGGA,232126.000,3038.2307,N,11418.9673,E,1,08,1.2,34.0,M,-14.1,M,,0000*47
$GPGGA,232127.000,3038.2350,N,11418.9766,E,1,07,1.3,34.6,M,-14.1,M,,0000*49
$GPGGA,232128.000,3038.2392,N,11418.9857,E,1,08,1.2,35.0,M,-14.1,M,,0000*4C
$GPGGA,232129.000,3038.2435,N,11418.9943,E,1,08,1.2,35.5,M,-14.1,M,,0000*46
$GPGGA,232130.000,3038.2477,N,11419.0027,E,1,08,1.2,35.4,M,-14.1,M,,0000*4A
$GPGGA,232131.000,3038.2517,N,11419.0111,E,1,07,1.4,34.8,M,-14.1,M,,0000*4C
$GPGGA,232132.000,3038.2554,N,11419.0200,E,1,05,2.5,34.1,M,-14.1,M,,0000*42
$GPGGA,232133.000,3038.2590,N,11419.0287,E,1,05,2.5,33.5,M,-14.1,M,,0000*47
$GPGGA,232134.000,3038.2629,N,11419.0370,E,1,05,2.5,33.1,M,-14.1,M,,0000*4C
$GPGGA,232135.000,3038.2665,N,11419.0452,E,1,05,2.1,32.9,M,-14.1,M,,0000*4F
$GPGGA,232136.000,3038.2698,N,11419.0539,E,1,04,3.1,32.5,M,-14.1,M,,0000*4E
$GPGGA,232137.000,3038.2730,N,11419.0630,E,1,04,3.1,32.1,M,-14.1,M,,0000*42
$GPGGA,232138.000,3038.2762,N,11419.0721,E,1,05,2.5,31.8,M,-14.1,M,,0000*45
$GPGGA,232139.000,3038.2796,N,11419.0818,E,1,05,2.5,31.5,M,-14.1,M,,0000*47
$GPGGA,232140.000,3038.2831,N,11419.0918,E,1,05,2.5,31.6,M,-14.1,M,,0000*49
$GPGGA,232141.000,3038.2868,N,11419.1032,E,1,05,2.5,31.8,M,-14.1,M,,0000*4A
$GPGGA,232142.000,3038.2908,N,11419.1144,E,1,05,2.5,31.7,M,-14.1,M,,0000*41
$GPGGA,232143.000,3038.2942,N,11419.1242,E,1,04,9.5,31.6,M,-14.1,M,,0000*40
$GPGGA,232144.000,3038.2976,N,11419.1342,E,1,04,9.5,31.6,M,-14.1,M,,0000*41
$GPGGA,232145.000,3038.3012,N,11419.1449,E,1,04,9.5,31.5,M,-14.1,M,,0000*45
$GPGGA,232146.000,3038.3050,N,11419.1557,E,1,04,9.4,31.1,M,-14.1,M,,0000*4B
$GPGGA,232147.000,3038.3088,N,11419.1665,E,1,04,9.4,30.6,M,-14.1,M,,0000*4B
$GPGGA,232148.000,3038.3129,N,11419.1781,E,1,04,9.4,30.2,M,-14.1,M,,0000*41
$GPGGA,232149.000,3038.3172,N,11419.1900,E,1,05,6.6,29.6,M,-14.1,M,,0000*49
$GPGGA,232150.000,3038.3219,N,11419.2026,E,1,05,6.6,28.6,M,-14.1,M,,0000*40
$GPGGA,232151.000,3038.3264,N,11419.2140,E,1,05,6.6,28.1,M,-14.1,M,,0000*4D
$GPGGA,232152.000,3038.3302,N,11419.2236,E,1,05,6.6,27.0,M,-14.1,M,,0000*43
$GPGGA,232153.000,3038.3312,N,11419.2273,E,1,05,1.4,26.3,M,-14.1,M,,0000*45
$GPGGA,232154.000,3038.3297,N,11419.2247,E,1,05,1.4,25.0,M,-14.1,M,,0000*49
$GPGGA,232155.000,3038.3336,N,11419.2357,E,1,05,1.4,24.4,M,-14.1,M,,0000*47
$GPGGA,232156.000,3038.3369,N,11419.2461,E,1,05,1.4,23.2,M,-14.1,M,,0000*4D
$GPGGA,232157.000,3038.3404,N,11419.2566,E,1,05,1.4,22.8,M,-14.1,M,,0000*4D
$GPGGA,232158.000,3038.3437,N,11419.2666,E,1,05,1.4,22.2,M,-14.1,M,,0000*4B
$GPGGA,232159.000,3038.3470,N,11419.2772,E,1,05,1.4,21.4,M,-14.1,M,,0000*48
$GPGGA,232200.000,3038.3500,N,11419.2870,E,1,05,1.4,20.7,M,-14.1,M,,0000*4E
$GPGGA,232201.000,3038.3525,N,11419.2959,E,1,05,1.4,19.8,M,-14.1,M,,0000*47
$GPGGA,232202.000,3038.3541,N,11419.3026,E,1,06,1.4,18.0,M,-14.1,M,,0000*4C
$GPGGA,232203.000,3038.3545,N,11419.3076,E,1,06,1.4,16.0,M,-14.1,M,,0000*42
$GPGGA,232204.000,3038.3556,N,11419.3144,E,1,06,1.4,14.0,M,-14.1,M,,0000*45
$GPGGA,232205.000,3038.3560,N,11419.3192,E,1,06,1.4,14.0,M,-14.1,M,,0000*4A
$GPGGA,232206.000,3038.3568,N,11419.3251,E,1,06,1.4,15.0,M,-14.1,M,,0000*4C
$GPGGA,232207.000,3038.3575,N,11419.3307,E,1,06,1.4,15.3,M,-14.1,M,,0000*40
$GPGGA,232208.000,3038.3581,N,11419.3362,E,1,06,1.4,15.0,M,-14.1,M,,0000*44
$GPGGA,232209.000,3038.3586,N,11419.3427,E,1,06,1.4,14.2,M,-14.1,M,,0000*47
$GPGGA,232210.000,3038.3593,N,11419.3498,E,1,06,1.4,14.0,M,-14.1,M,,0000*4D
$GPGGA,232211.000,3038.3601,N,11419.3585,E,1,07,1.2,14.5,M,-14.1,M,,0000*4B
$GPGGA,232212.000,3038.3614,N,11419.3683,E,1,07,1.2,14.7,M,-14.1,M,,0000*4B
$GPGGA,232213.000,3038.3628,N,11419.3794,E,1,07,1.2,14.8,M,-14.1,M,,0000*4D
$GPGGA,232214.000,3038.3636,N,11419.3901,E,1,08,1.2,15.5,M,-14.1,M,,0000*44
$GPGGA,232215.000,3038.3639,N,11419.4005,E,1,08,1.2,16.3,M,-14.1,M,,0000*45
$GPGGA,232216.000,3038.3635,N,11419.4105,E,1,08,1.2,17.1,M,-14.1,M,,0000*48
$GPGGA,232217.000,3038.3631,N,11419.4206,E,1,07,1.3,17.9,M,-14.1,M,,0000*4B
$GPGGA,232218.000,3038.3625,N,11419.4306,E,1,08,1.2,19.2,M,-14.1,M,,0000*4B
$GPGGA,232219.000,3038.3613,N,11419.4392,E,1,08,1.2,21.4,M,-14.1,M,,0000*4F
$GPGGA,232220.000,3038.3603,N,11419.4484,E,1,08,1.2,22.6,M,-14.1,M,,0000*45
$GPGGA,232221.000,3038.3593,N,11419.4576,E,1,08,1.2,23.7,M,-14.1,M,,0000*42
$GPGGA,232222.000,3038.3582,N,11419.4661,E,1,08,1.2,25.6,M,-14.1,M,,0000*43
$GPGGA,232223.000,3038.3568,N,11419.4740,E,1,08,1.2,27.1,M,-14.1,M,,0000*41
$GPGGA,232224.000,3038.3554,N,11419.4820,E,1,08,1.2,28.4,M,-14.1,M,,0000*4A
$GPGGA,232225.000,3038.3539,N,11419.4898,E,1,08,1.2,29.5,M,-14.1,M,,0000*43
$GPGGA,232226.000,3038.3522,N,11419.4979,E,1,08,1.2,29.8,M,-14.1,M,,0000*49
$GPGGA,232227.000,3038.3502,N,11419.5059,E,1,08,1.2,30.4,M,-14.1,M,,0000*44
$GPGGA,232228.000,3038.3480,N,11419.5142,E,1,08,1.2,31.0,M,-14.1,M,,0000*4E
$GPGGA,232229.000,3038.3455,N,11419.5222,E,1,08,1.2,31.9,M,-14.1,M,,0000*4B
$GPGGA,232230.000,3038.3432,N,11419.5297,E,1,08,1.2,32.6,M,-14.1,M,,0000*40
$GPGGA,232231.000,3038.3409,N,11419.5362,E,1,08,1.2,33.0,M,-14.1,M,,0000*45
$GPGGA,232232.000,3038.3390,N,11419.5410,E,1,08,1.2,33.3,M,-14.1,M,,0000*40
$GPGGA,232233.000,3038.3377,N,11419.5443,E,1,08,1.2,33.5,M,-14.1,M,,0000*48
$GPGGA,232234.000,3038.3366,N,11419.5472,E,1,08,1.2,33.3,M,-14.1,M,,0000*4B
$GPGGA,232235.000,3038.3355,N,11419.5499,E,1,08,1.2,33.3,M,-14.1,M,,0000*4F
$GPGGA,232236.000,3038.3344,N,11419.5526,E,1,08,1.2,33.3,M,-14.1,M,,0000*49
$GPGGA,232237.000,3038.3333,N,11419.5551,E,1,08,1.2,33.4,M,-14.1,M,,0000*4F
$GPGGA,232238.000,3038.3324,N,11419.5574,E,1,08,1.2,33.5,M,-14.1,M,,0000*40
$GPGGA,232239.000,3038.3317,N,11419.5591,E,1,08,1.2,33.8,M,-14.1,M,,0000*47
$GPGGA,232240.000,3038.3313,N,11419.5601,E,1,08,1.2,33.9,M,-14.1,M,,0000*46
$GPGGA,232241.000,3038.3311,N,11419.5606,E,1,08,1.2,34.1,M,-14.1,M,,0000*4D
$GPGGA,232242.000,3038.3308,N,11419.5610,E,1,08,1.2,34.3,M,-14.1,M,,0000*43
$GPGGA,232243.000,3038.3305,N,11419.5616,E,1,08,1.2,34.5,M,-14.1,M,,0000*4F
$GPGGA,232244.000,3038.3299,N,11419.5627,E,1,08,1.2,34.9,M,-14.1,M,,0000*42
$GPGGA,232245.000,3038.3290,N,11419.5647,E,1,08,1.2,34.7,M,-14.1,M,,0000*42
$GPGGA,232246.000,3038.3278,N,11419.5675,E,1,08,1.2,34.5,M,-14.1,M,,0000*44
$GPGGA,232247.000,3038.3266,N,11419.5705,E,1,08,1.2,34.5,M,-14.1,M,,0000*4C
$GPGGA,232248.000,3038.3252,N,11419.5734,E,1,07,1.4,34.6,M,-14.1,M,,0000*4C
$GPGGA,232249.000,3038.3237,N,11419.5767,E,1,08,1.2,34.5,M,-14.1,M,,0000*42
$GPGGA,232250.000,3038.3219,N,11419.5805,E,1,08,1.2,34.3,M,-14.1,M,,0000*4B
$GPGGA,232251.000,3038.3201,N,11419.5846,E,1,08,1.2,34.3,M,-14.1,M,,0000*44
$GPGGA,232252.000,3038.3183,N,11419.5885,E,1,08,1.2,34.4,M,-14.1,M,,0000*46
$GPGGA,232253.000,3038.3163,N,11419.5919,E,1,08,1.2,34.9,M,-14.1,M,,0000*40
$GPGGA,232254.000,3038.3142,N,11419.5958,E,1,08,1.2,35.0,M,-14.1,M,,0000*49
$GPGGA,232255.000,3038.3119,N,11419.6001,E,1,08,1.2,35.1,M,-14.1,M,,0000*41
$GPGGA,232256.000,3038.3094,N,11419.6044,E,1,08,1.2,35.1,M,-14.1,M,,0000*47
$GPGGA,232257.000,3038.3067,N,11419.6086,E,1,08,1.2,35.3,M,-14.1,M,,0000*46
$GPGGA,232258.000,3038.3040,N,11419.6130,E,1,08,1.2,35.5,M,-14.1,M,,0000*46
$GPGGA,232259.000,3038.3012,N,11419.6172,E,1,07,1.3,36.1,M,-14.1,M,,0000*4F
$GPGGA,232300.000,3038.2984,N,11419.6217,E,1,08,1.2,36.5,M,-14.1,M,,0000*4F
$GPGGA,232301.000,3038.2955,N,11419.6261,E,1,08,1.2,36.9,M,-14.1,M,,0000*4F
$GPGGA,232302.000,3038.2927,N,11419.6302,E,1,08,1.2,37.2,M,-14.1,M,,0000*47
$GPGGA,232303.000,3038.2902,N,11419.6340,E,1,08,1.2,37.5,M,-14.1,M,,0000*40
$GPGGA,232304.000,3038.2878,N,11419.6373,E,1,08,1.2,37.8,M,-14.1,M,,0000*46
$GPGGA,232305.000,3038.2855,N,11419.6405,E,1,08,1.2,37.9,M,-14.1,M,,0000*4F
$GPGGA,232306.000,3038.2831,N,11419.6442,E,1,08,1.2,37.8,M,-14.1,M,,0000*4C
$GPGGA,232307.000,3038.2805,N,11419.6480,E,1,08,1.2,38.0,M,-14.1,M,,0000*43
$GPGGA,232308.000,3038.2777,N,11419.6521,E,1,08,1.2,38.3,M,-14.1,M,,0000*4F
$GPGGA,232309.000,3038.2746,N,11419.6566,E,1,08,1.2,38.3,M,-14.1,M,,0000*4F
$GPGGA,232310.000,3038.2713,N,11419.6613,E,1,08,1.2,38.6,M,-14.1,M,,0000*43
$GPGGA,232311.000,3038.2678,N,11419.6664,E,1,08,1.2,38.7,M,-14.1,M,,0000*4F
$GPGGA,232312.000,3038.2642,N,11419.6717,E,1,08,1.2,38.7,M,-14.1,M,,0000*40
$GPGGA,232313.000,3038.2605,N,11419.6769,E,1,08,1.2,38.9,M,-14.1,M,,0000*45
$GPGGA,232314.000,3038.2568,N,11419.6821,E,1,08,1.2,39.1,M,-14.1,M,,0000*40
$GPGGA,232315.000,3038.2529,N,11419.6874,E,1,08,1.2,39.4,M,-14.1,M,,0000*41
$GPGGA,232316.000,3038.2489,N,11419.6928,E,1,08,1.2,39.6,M,-14.1,M,,0000*43
$GPGGA,232317.000,3038.2450,N,11419.6985,E,1,08,1.2,39.7,M,-14.1,M,,0000*40
$GPGGA,232318.000,3038.2409,N,11419.7041,E,1,08,1.2,39.9,M,-14.1,M,,0000*4D
$GPGGA,232319.000,3038.2368,N,11419.7096,E,1,09,1.0,40.5,M,-14.1,M,,0000*47
$GPGGA,232320.000,3038.2328,N,11419.7149,E,1,09,1.0,41.3,M,-14.1,M,,0000*4D
$GPGGA,232321.000,3038.2288,N,11419.7203,E,1,09,1.0,41.9,M,-14.1,M,,0000*40
$GPGGA,232322.000,3038.2248,N,11419.7258,E,1,09,1.0,42.4,M,-14.1,M,,0000*4F
$GPGGA,232323.000,3038.2206,N,11419.7313,E,1,09,1.0,42.8,M,-14.1,M,,0000*46
$GPGGA,232324.000,3038.2164,N,11419.7370,E,1,09,1.0,43.2,M,-14.1,M,,0000*48
$GPGGA,232325.000,3038.2120,N,11419.7429,E,1,09,1.0,43.6,M,-14.1,M,,0000*46
$GPGGA,232326.000,3038.2075,N,11419.7490,E,1,09,1.0,44.0,M,-14.1,M,,0000*47
$GPGGA,232327.000,3038.2029,N,11419.7553,E,1,09,1.0,44.3,M,-14.1,M,,0000*42
$GPGGA,232328.000,3038.1983,N,11419.7618,E,1,09,1.0,44.7,M,-14.1,M,,0000*4F
$GPGGA,232329.000,3038.1935,N,11419.7685,E,1,09,1.0,45.1,M,-14.1,M,,0000*40
$GPGGA,232330.000,3038.1885,N,11419.7754,E,1,09,1.0,45.4,M,-14.1,M,,0000*4A
$GPGGA,232331.000,3038.1834,N,11419.7825,E,1,10,0.9,45.8,M,-14.1,M,,0000*44
$GPGGA,232332.000,3038.1783,N,11419.7897,E,1,10,0.9,46.2,M,-14.1,M,,0000*44
$GPGGA,232333.000,3038.1730,N,11419.7972,E,1,10,0.9,46.5,M,-14.1,M,,0000*40
$GPGGA,232334.000,3038.1675,N,11419.8046,E,1,10,0.9,46.9,M,-14.1,M,,0000*4A
$GPGGA,232335.000,3038.1620,N,11419.8121,E,1,10,0.9,47.2,M,-14.1,M,,0000*41
$GPGGA,232336.000,3038.1566,N,11419.8196,E,1,10,0.9,47.5,M,-14.1,M,,0000*48
$GPGGA,232337.000,3038.1511,N,11419.8272,E,1,10,0.9,47.9,M,-14.1,M,,0000*4C
$GPGGA,232338.000,3038.1457,N,11419.8349,E,1,10,0.9,48.2,M,-14.1,M,,0000*4D
$GPGGA,232339.000,3038.1402,N,11419.8426,E,1,10,0.9,48.6,M,-14.1,M,,0000*46
$GPGGA,232340.000,3038.1348,N,11419.8503,E,1,10,0.9,49.0,M,-14.1,M,,0000*40
$GPGGA,232341.000,3038.1293,N,11419.8581,E,1,10,0.9,49.3,M,-14.1,M,,0000*4F
$GPGGA,232342.000,3038.1237,N,11419.8658,E,1,10,0.9,49.6,M,-14.1,M,,0000*40
$GPGGA,232343.000,3038.1181,N,11419.8736,E,1,10,0.9,49.8,M,-14.1,M,,0000*48
$GPGGA,232344.000,3038.1125,N,11419.8814,E,1,10,0.9,50.1,M,-14.1,M,,0000*4F
$GPGGA,232345.000,3038.1068,N,11419.8892,E,1,10,0.9,50.3,M,-14.1,M,,0000*4A
$GPGGA,232346.000,3038.1012,N,11419.8970,E,1,10,0.9,50.6,M,-14.1,M,,0000*4C
$GPGGA,232347.000,3038.0957,N,11419.9047,E,1,10,0.9,50.9,M,-14.1,M,,0000*47
$GPGGA,232348.000,3038.0901,N,11419.9125,E,1,10,0.9,51.2,M,-14.1,M,,0000*44
$GPGGA,232349.000,3038.0845,N,11419.9203,E,1,10,0.9,51.5,M,-14.1,M,,0000*44
$GPGGA,232350.000,3038.0789,N,11419.9282,E,1,10,0.9,51.8,M,-14.1,M,,0000*47
$GPGGA,232351.000,3038.0732,N,11419.9360,E,1,10,0.9,52.0,M,-14.1,M,,0000*40
$GPGGA,232352.000,3038.0675,N,11419.9439,E,1,10,0.9,52.3,M,-14.1,M,,0000*49
$GPGGA,232353.000,3038.0619,N,11419.9518,E,1,10,0.9,52.7,M,-14.1,M,,0000*44
$GPGGA,232354.000,3038.0563,N,11419.9597,E,1,10,0.9,52.9,M,-14.1,M,,0000*44
$GPGGA,232355.000,3038.0507,N,11419.9676,E,1,10,0.9,53.2,M,-14.1,M,,0000*41
$GPGGA,232356.000,3038.0450,N,11419.9755,E,1,10,0.9,53.4,M,-14.1,M,,0000*47
$GPGGA,232357.000,3038.0394,N,11419.9834,E,1,10,0.9,53.8,M,-14.1,M,,0000*4D
$GPGGA,232358.000,3038.0337,N,11419.9915,E,1,10,0.9,54.0,M,-14.1,M,,0000*46
$GPGGA,232359.000,3038.0280,N,11419.9995,E,1,10,0.9,54.2,M,-14.1,M,,0000*40
$GPGGA,232400.000,3038.0222,N,11420.0076,E,1,10,0.9,54.5,M,-14.1,M,,0000*43
$GPGGA,232401.000,3038.0165,N,11420.0155,E,1,10,0.9,54.5,M,-14.1,M,,0000*42
$GPGGA,232402.000,3038.0107,N,11420.0237,E,1,10,0.9,54.8,M,-14.1,M,,0000*4F
$GPGGA,232403.000,3038.0049,N,11420.0319,E,1,10,0.9,55.1,M,-14.1,M,,0000*40
$GPGGA,232404.000,3037.9991,N,11420.0400,E,1,10,0.9,55.3,M,-14.1,M,,0000*40
$GPGGA,232405.000,3037.9933,N,11420.0481,E,1,10,0.9,55.7,M,-14.1,M,,0000*44
$GPGGA,232406.000,3037.9877,N,11420.0561,E,1,10,0.9,55.9,M,-14.1,M,,0000*47
$GPGGA,232407.000,3037.9822,N,11420.0639,E,1,10,0.9,56.1,M,-14.1,M,,0000*43
$GPGGA,232408.000,3037.9768,N,11420.0715,E,1,10,0.9,56.4,M,-14.1,M,,0000*47
$GPGGA,232409.000,3037.9715,N,11420.0790,E,1,10,0.9,56.8,M,-14.1,M,,0000*4D
$GPGGA,232410.000,3037.9663,N,11420.0861,E,1,10,0.9,57.0,M,-14.1,M,,0000*4D
$GPGGA,232411.000,3037.9613,N,11420.0930,E,1,10,0.9,57.1,M,-14.1,M,,0000*4F
$GPGGA,232412.000,3037.9565,N,11420.0997,E,1,10,0.9,57.3,M,-14.1,M,,0000*41
$GPGGA,232413.000,3037.9519,N,11420.1062,E,1,10,0.9,57.4,M,-14.1,M,,0000*4E
$GPGGA,232414.000,3037.9473,N,11420.1126,E,1,10,0.9,57.6,M,-14.1,M,,0000*47
$GPGGA,232415.000,3037.9429,N,11420.1189,E,1,10,0.9,57.8,M,-14.1,M,,0000*42
$GPGGA,232416.000,3037.9385,N,11420.1250,E,1,10,0.9,58.0,M,-14.1,M,,0000*40
$GPGGA,232417.000,3037.9342,N,11420.1310,E,1,10,0.9,58.1,M,-14.1,M,,0000*4E
$GPGGA,232418.000,3037.9298,N,11420.1371,E,1,10,0.9,58.1,M,-14.1,M,,0000*40
$GPGGA,232419.000,3037.9255,N,11420.1432,E,1,10,0.9,58.2,M,-14.1,M,,0000*43
$GPGGA,232420.000,3037.9211,N,11420.1493,E,1,10,0.9,58.2,M,-14.1,M,,0000*42
$GPGGA,232421.000,3037.9166,N,11420.1555,E,1,10,0.9,58.4,M,-14.1,M,,0000*4D
$GPGGA,232422.000,3037.9122,N,11420.1618,E,1,10,0.9,58.7,M,-14.1,M,,0000*47
$GPGGA,232423.000,3037.9077,N,11420.1681,E,1,10,0.9,59.0,M,-14.1,M,,0000*41
$GPGGA,232424.000,3037.9032,N,11420.1744,E,1,10,0.9,59.4,M,-14.1,M,,0000*4B
$GPGGA,232425.000,3037.8987,N,11420.1807,E,1,10,0.9,59.5,M,-14.1,M,,0000*45
$GPGGA,232426.000,3037.8941,N,11420.1871,E,1,10,0.9,59.6,M,-14.1,M,,0000*4E
$GPGGA,232427.000,3037.8895,N,11420.1936,E,1,10,0.9,59.8,M,-14.1,M,,0000*4B
$GPGGA,232428.000,3037.8849,N,11420.2000,E,1,10,0.9,59.7,M,-14.1,M,,0000*45
$GPGGA,232429.000,3037.8804,N,11420.2062,E,1,10,0.9,59.6,M,-14.1,M,,0000*48
$GPGGA,232430.000,3037.8759,N,11420.2123,E,1,10,0.9,59.5,M,-14.1,M,,0000*40
$GPGGA,232431.000,3037.8715,N,11420.2183,E,1,10,0.9,59.4,M,-14.1,M,,0000*42
$GPGGA,232432.000,3037.8671,N,11420.2243,E,1,10,0.9,59.4,M,-14.1,M,,0000*4D
$GPGGA,232433.000,3037.8627,N,11420.2304,E,1,10,0.9,59.6,M,-14.1,M,,0000*4F
$GPGGA,232434.000,3037.8583,N,11420.2366,E,1,10,0.9,60.0,M,-14.1,M,,0000*4D
$GPGGA,232435.000,3037.8537,N,11420.2431,E,1,10,0.9,60.6,M,-14.1,M,,0000*40
$GPGGA,232436.000,3037.8491,N,11420.2496,E,1,10,0.9,61.0,M,-14.1,M,,0000*44
$GPGGA,232437.000,3037.8444,N,11420.2563,E,1,10,0.9,61.4,M,-14.1,M,,0000*42
$GPGGA,232438.000,3037.8396,N,11420.2629,E,1,10,0.9,61.6,M,-14.1,M,,0000*4A
$GPGGA,232439.000,3037.8347,N,11420.2698,E,1,10,0.9,61.8,M,-14.1,M,,0000*43
$GPGGA,232440.000,3037.8299,N,11420.2765,E,1,10,0.9,61.7,M,-14.1,M,,0000*43
$GPGGA,232441.000,3037.8251,N,11420.2831,E,1,10,0.9,61.6,M,-14.1,M,,0000*49
$GPGGA,232442.000,3037.8205,N,11420.2897,E,1,10,0.9,61.8,M,-14.1,M,,0000*49
$GPGGA,232443.000,3037.8158,N,11420.2963,E,1,10,0.9,61.8,M,-14.1,M,,0000*49
$GPGGA,232444.000,3037.8110,N,11420.3031,E,1,10,0.9,61.9,M,-14.1,M,,0000*4C
$GPGGA,232445.000,3037.8061,N,11420.3101,E,1,10,0.9,62.6,M,-14.1,M,,0000*44
$GPGGA,232446.000,3037.8012,N,11420.3172,E,1,10,0.9,63.1,M,-14.1,M,,0000*41
$GPGGA,232447.000,3037.7963,N,11420.3241,E,1,10,0.9,63.6,M,-14.1,M,,0000*44
$GPGGA,232448.000,3037.7914,N,11420.3311,E,1,10,0.9,63.9,M,-14.1,M,,0000*40
$GPGGA,232449.000,3037.7864,N,11420.3381,E,1,10,0.9,64.1,M,-14.1,M,,0000*41
$GPGGA,232450.000,3037.7814,N,11420.3452,E,1,10,0.9,64.5,M,-14.1,M,,0000*43
$GPGGA,232451.000,3037.7761,N,11420.3526,E,1,10,0.9,64.9,M,-14.1,M,,0000*41
$GPGGA,232452.000,3037.7707,N,11420.3601,E,1,10,0.9,65.3,M,-14.1,M,,0000*4F
$GPGGA,232453.000,3037.7652,N,11420.3679,E,1,10,0.9,65.7,M,-14.1,M,,0000*44
$GPGGA,232454.000,3037.7597,N,11420.3756,E,1,09,1.0,65.9,M,-14.1,M,,0000*4B
$GPGGA,232455.000,3037.7541,N,11420.3834,E,1,10,0.9,66.1,M,-14.1,M,,0000*41
$GPGGA,232456.000,3037.7485,N,11420.3912,E,1,10,0.9,66.4,M,-14.1,M,,0000*4B
$GPGGA,232457.000,3037.7428,N,11420.3991,E,1,10,0.9,66.6,M,-14.1,M,,0000*44
$GPGGA,232458.000,3037.7370,N,11420.4072,E,1,10,0.9,66.7,M,-14.1,M,,0000*43
$GPGGA,232459.000,3037.7311,N,11420.4153,E,1,10,0.9,66.9,M,-14.1,M,,0000*49
$GPGGA,232500.000,3037.7251,N,11420.4235,E,1,10,0.9,66.9,M,-14.1,M,,0000*42
$GPGGA,232501.000,3037.7191,N,11420.4318,E,1,10,0.9,67.1,M,-14.1,M,,0000*4B
$GPGGA,232502.000,3037.7131,N,11420.4402,E,1,10,0.9,67.2,M,-14.1,M,,0000*4D
$GPGGA,232503.000,3037.7072,N,11420.4484,E,1,10,0.9,67.3,M,-14.1,M,,0000*45
$GPGGA,232504.000,3037.7013,N,11420.4567,E,1,10,0.9,67.5,M,-14.1,M,,0000*4F
$GPGGA,232505.000,3037.6954,N,11420.4648,E,1,10,0.9,67.4,M,-14.1,M,,0000*4A
$GPGGA,232506.000,3037.6897,N,11420.4728,E,1,10,0.9,67.4,M,-14.1,M,,0000*40
$GPGGA,232507.000,3037.6840,N,11420.4808,E,1,10,0.9,67.4,M,-14.1,M,,0000*46
$GPGGA,232508.000,3037.6784,N,11420.4886,E,1,10,0.9,67.4,M,-14.1,M,,0000*48
$GPGGA,232509.000,3037.6728,N,11420.4965,E,1,10,0.9,67.2,M,-14.1,M,,0000*45
$GPGGA,232510.000,3037.6673,N,11420.5044,E,1,10,0.9,67.0,M,-14.1,M,,0000*4B
$GPGGA,232511.000,3037.6617,N,11420.5122,E,1,10,0.9,66.9,M,-14.1,M,,0000*41
$GPGGA,232512.000,3037.6562,N,11420.5199,E,1,10,0.9,67.0,M,-14.1,M,,0000*4B
$GPGGA,232513.000,3037.6509,N,11420.5275,E,1,10,0.9,66.8,M,-14.1,M,,0000*4F
$GPGGA,232514.000,3037.6458,N,11420.5349,E,1,10,0.9,66.3,M,-14.1,M,,0000*48
$GPGGA,232515.000,3037.6409,N,11420.5420,E,1,10,0.9,66.0,M,-14.1,M,,0000*46
$GPGGA,232516.000,3037.6362,N,11420.5488,E,1,10,0.9,65.9,M,-14.1,M,,0000*47
$GPGGA,232517.000,3037.6316,N,11420.5555,E,1,10,0.9,66.0,M,-14.1,M,,0000*4E
$GPGGA,232518.000,3037.6271,N,11420.5619,E,1,10,0.9,65.6,M,-14.1,M,,0000*4F
$GPGGA,232519.000,3037.6226,N,11420.5682,E,1,10,0.9,65.4,M,-14.1,M,,0000*4C
$GPGGA,232520.000,3037.6181,N,11420.5746,E,1,10,0.9,65.2,M,-14.1,M,,0000*47
$GPGGA,232521.000,3037.6133,N,11420.5814,E,1,10,0.9,65.1,M,-14.1,M,,0000*44
$GPGGA,232522.000,3037.6084,N,11420.5882,E,1,10,0.9,64.9,M,-14.1,M,,0000*4C
$GPGGA,232523.000,3037.6033,N,11420.5954,E,1,10,0.9,64.9,M,-14.1,M,,0000*4B
$GPGGA,232524.000,3037.5981,N,11420.6027,E,1,10,0.9,65.0,M,-14.1,M,,0000*49
$GPGGA,232525.000,3037.5927,N,11420.6102,E,1,10,0.9,65.1,M,-14.1,M,,0000*43
$GPGGA,232526.000,3037.5871,N,11420.6180,E,1,10,0.9,65.0,M,-14.1,M,,0000*49
$GPGGA,232527.000,3037.5815,N,11420.6259,E,1,10,0.9,65.0,M,-14.1,M,,0000*4D
$GPGGA,232528.000,3037.5757,N,11420.6339,E,1,10,0.9,65.1,M,-14.1,M,,0000*4D
$GPGGA,232529.000,3037.5700,N,11420.6419,E,1,10,0.9,65.1,M,-14.1,M,,0000*4B
$GPGGA,232530.000,3037.5642,N,11420.6500,E,1,10,0.9,65.1,M,-14.1,M,,0000*4D
$GPGGA,232531.000,3037.5585,N,11420.6580,E,1,10,0.9,65.2,M,-14.1,M,,0000*4F
$GPGGA,232532.000,3037.5527,N,11420.6660,E,1,10,0.9,65.4,M,-14.1,M,,0000*4F
$GPGGA,232533.000,3037.5470,N,11420.6739,E,1,10,0.9,65.8,M,-14.1,M,,0000*4C
$GPGGA,232534.000,3037.5415,N,11420.6816,E,1,10,0.9,66.0,M,-14.1,M,,0000*41
$GPGGA,232535.000,3037.5360,N,11420.6892,E,1,09,1.1,66.0,M,-14.1,M,,0000*48
$GPGGA,232536.000,3037.5306,N,11420.6966,E,1,09,1.1,65.8,M,-14.1,M,,0000*4A
$GPGGA,232537.000,3037.5252,N,11420.7041,E,1,09,1.1,65.8,M,-14.1,M,,0000*46
$GPGGA,232538.000,3037.5199,N,11420.7115,E,1,09,1.1,65.7,M,-14.1,M,,0000*42
$GPGGA,232539.000,3037.5146,N,11420.7189,E,1,10,0.9,65.6,M,-14.1,M,,0000*44
$GPGGA,232540.000,3037.5092,N,11420.7264,E,1,10,0.9,65.7,M,-14.1,M,,0000*43
$GPGGA,232541.000,3037.5037,N,11420.7338,E,1,10,0.9,65.7,M,-14.1,M,,0000*45
$GPGGA,232542.000,3037.4983,N,11420.7413,E,1,10,0.9,65.4,M,-14.1,M,,0000*4C
$GPGGA,232543.000,3037.4928,N,11420.7488,E,1,10,0.9,65.2,M,-14.1,M,,0000*48
$GPGGA,232544.000,3037.4874,N,11420.7563,E,1,10,0.9,64.9,M,-14.1,M,,0000*49
$GPGGA,232545.000,3037.4820,N,11420.7638,E,1,10,0.9,64.5,M,-14.1,M,,0000*48
$GPGGA,232546.000,3037.4768,N,11420.7713,E,1,10,0.9,64.3,M,-14.1,M,,0000*46
$GPGGA,232547.000,3037.4715,N,11420.7787,E,1,10,0.9,64.1,M,-14.1,M,,0000*42
$GPGGA,232548.000,3037.4662,N,11420.7861,E,1,10,0.9,63.9,M,-14.1,M,,0000*44
$GPGGA,232549.000,3037.4610,N,11420.7934,E,1,10,0.9,63.9,M,-14.1,M,,0000*41
$GPGGA,232550.000,3037.4557,N,11420.8007,E,1,10,0.9,63.7,M,-14.1,M,,0000*41
$GPGGA,232551.000,3037.4504,N,11420.8081,E,1,10,0.9,63.5,M,-14.1,M,,0000*4A
$GPGGA,232552.000,3037.4453,N,11420.8155,E,1,10,0.9,63.3,M,-14.1,M,,0000*44
$GPGGA,232553.000,3037.4400,N,11420.8230,E,1,10,0.9,63.0,M,-14.1,M,,0000*40
$GPGGA,232554.000,3037.4346,N,11420.8303,E,1,10,0.9,62.9,M,-14.1,M,,0000*4B
$GPGGA,232555.000,3037.4293,N,11420.8378,E,1,10,0.9,62.6,M,-14.1,M,,0000*40
$GPGGA,232556.000,3037.4240,N,11420.8452,E,1,10,0.9,62.3,M,-14.1,M,,0000*47
$GPGGA,232557.000,3037.4188,N,11420.8525,E,1,10,0.9,61.9,M,-14.1,M,,0000*49
$GPGGA,232558.000,3037.4138,N,11420.8595,E,1,10,0.9,61.3,M,-14.1,M,,0000*4C
$GPGGA,232559.000,3037.4088,N,11420.8664,E,1,10,0.9,60.7,M,-14.1,M,,0000*4F
$GPGGA,232600.000,3037.4040,N,11420.8732,E,1,10,0.9,60.3,M,-14.1,M,,0000*42
$GPGGA,232601.000,3037.3990,N,11420.8801,E,1,10,0.9,60.0,M,-14.1,M,,0000*4C
$GPGGA,232602.000,3037.3940,N,11420.8871,E,1,10,0.9,59.6,M,-14.1,M,,0000*49
$GPGGA,232603.000,3037.3888,N,11420.8944,E,1,10,0.9,59.1,M,-14.1,M,,0000*4D
$GPGGA,232604.000,3037.3835,N,11420.9019,E,1,10,0.9,58.9,M,-14.1,M,,0000*45
$GPGGA,232605.000,3037.3782,N,11420.9093,E,1,10,0.9,58.7,M,-14.1,M,,0000*4B
$GPGGA,232606.000,3037.3729,N,11420.9167,E,1,10,0.9,58.8,M,-14.1,M,,0000*4C
$GPGGA,232607.000,3037.3679,N,11420.9238,E,1,10,0.9,58.6,M,-14.1,M,,0000*4E
$GPGGA,232608.000,3037.3629,N,11420.9307,E,1,10,0.9,58.5,M,-14.1,M,,0000*4A
$GPGGA,232609.000,3037.3581,N,11420.9374,E,1,10,0.9,58.5,M,-14.1,M,,0000*4E
$GPGGA,232610.000,3037.3533,N,11420.9441,E,1,10,0.9,58.4,M,-14.1,M,,0000*4F
$GPGGA,232611.000,3037.3487,N,11420.9506,E,1,10,0.9,58.6,M,-14.1,M,,0000*40
$GPGGA,232612.000,3037.3441,N,11420.9571,E,1,10,0.9,58.5,M,-14.1,M,,0000*4A
$GPGGA,232613.000,3037.3392,N,11420.9639,E,1,10,0.9,58.6,M,-14.1,M,,0000*4E
$GPGGA,232614.000,3037.3344,N,11420.9707,E,1,09,1.1,58.6,M,-14.1,M,,0000*4F
$GPGGA,232615.000,3037.3294,N,11420.9775,E,1,09,1.1,58.7,M,-14.1,M,,0000*46
$GPGGA,232616.000,3037.3244,N,11420.9843,E,1,09,1.1,58.5,M,-14.1,M,,0000*40
$GPGGA,232617.000,3037.3192,N,11420.9912,E,1,10,0.9,58.4,M,-14.1,M,,0000*4C
$GPGGA,232618.000,3037.3139,N,11420.9983,E,1,10,0.9,58.2,M,-14.1,M,,0000*4C
$GPGGA,232619.000,3037.3083,N,11421.0055,E,1,10,0.9,58.2,M,-14.1,M,,0000*47
$GPGGA,232620.000,3037.3025,N,11421.0128,E,1,10,0.9,57.9,M,-14.1,M,,0000*4E
$GPGGA,232621.000,3037.2966,N,11421.0202,E,1,10,0.9,57.6,M,-14.1,M,,0000*44
$GPGGA,232622.000,3037.2904,N,11421.0280,E,1,10,0.9,57.4,M,-14.1,M,,0000*4B
$GPGGA,232623.000,3037.2842,N,11421.0355,E,1,09,1.0,57.1,M,-14.1,M,,0000*45
$GPGGA,232624.000,3037.2779,N,11421.0433,E,1,10,0.9,56.7,M,-14.1,M,,0000*45
$GPGGA,232625.000,3037.2714,N,11421.0512,E,1,10,0.9,56.3,M,-14.1,M,,0000*49
$GPGGA,232626.000,3037.2647,N,11421.0591,E,1,10,0.9,55.9,M,-14.1,M,,0000*4F
$GPGGA,232627.000,3037.2580,N,11421.0669,E,1,10,0.9,55.5,M,-14.1,M,,0000*4E
$GPGGA,232628.000,3037.2512,N,11421.0748,E,1,10,0.9,55.1,M,-14.1,M,,0000*4C
$GPGGA,232629.000,3037.2445,N,11421.0826,E,1,10,0.9,54.7,M,-14.1,M,,0000*4E
$GPGGA,232630.000,3037.2377,N,11421.0902,E,1,10,0.9,54.4,M,-14.1,M,,0000*44
$GPGGA,232631.000,3037.2308,N,11421.0978,E,1,10,0.9,54.0,M,-14.1,M,,0000*44
$GPGGA,232632.000,3037.2238,N,11421.1053,E,1,10,0.9,53.6,M,-14.1,M,,0000*45
$GPGGA,232633.000,3037.2167,N,11421.1128,E,1,09,1.0,53.3,M,-14.1,M,,0000*45
$GPGGA,232634.000,3037.2095,N,11421.1202,E,1,10,0.9,53.1,M,-14.1,M,,0000*47
$GPGGA,232635.000,3037.2024,N,11421.1276,E,1,10,0.9,52.8,M,-14.1,M,,0000*47
$GPGGA,232636.000,3037.1950,N,11421.1350,E,1,10,0.9,52.6,M,-14.1,M,,0000*46
$GPGGA,232637.000,3037.1875,N,11421.1425,E,1,09,1.0,52.3,M,-14.1,M,,0000*41
$GPGGA,232638.000,3037.1798,N,11421.1499,E,1,10,0.9,52.2,M,-14.1,M,,0000*44
$GPGGA,232639.000,3037.1719,N,11421.1574,E,1,10,0.9,52.3,M,-14.1,M,,0000*4F
$GPGGA,232640.000,3037.1638,N,11421.1649,E,1,09,1.0,52.1,M,-14.1,M,,0000*4C
$GPGGA,232641.000,3037.1556,N,11421.1724,E,1,10,0.9,52.0,M,-14.1,M,,0000*4D
$GPGGA,232642.000,3037.1472,N,11421.1798,E,1,10,0.9,52.4,M,-14.1,M,,0000*4A
$GPGGA,232643.000,3037.1388,N,11421.1873,E,1,08,1.2,52.4,M,-14.1,M,,0000*40
$GPGGA,232644.000,3037.1304,N,11421.1946,E,1,10,0.9,52.4,M,-14.1,M,,0000*47
$GPGGA,232645.000,3037.1219,N,11421.2019,E,1,10,0.9,52.5,M,-14.1,M,,0000*4A
$GPGGA,232646.000,3037.1134,N,11421.2093,E,1,10,0.9,52.6,M,-14.1,M,,0000*44
$GPGGA,232647.000,3037.1049,N,11421.2167,E,1,09,1.0,52.7,M,-14.1,M,,0000*45
$GPGGA,232648.000,3037.0964,N,11421.2238,E,1,10,0.9,52.6,M,-14.1,M,,0000*45
$GPGGA,232649.000,3037.0880,N,11421.2306,E,1,10,0.9,52.7,M,-14.1,M,,0000*42
$GPGGA,232650.000,3037.0797,N,11421.2372,E,1,10,0.9,52.5,M,-14.1,M,,0000*42
$GPGGA,232651.000,3037.0714,N,11421.2437,E,1,10,0.9,52.1,M,-14.1,M,,0000*4A
$GPGGA,232652.000,3037.0631,N,11421.2501,E,1,10,0.9,52.1,M,-14.1,M,,0000*4B
$GPGGA,232653.000,3037.0548,N,11421.2564,E,1,10,0.9,52.0,M,-14.1,M,,0000*45
$GPGGA,232654.000,3037.0464,N,11421.2627,E,1,10,0.9,52.2,M,-14.1,M,,0000*4B
$GPGGA,232655.000,3037.0378,N,11421.2691,E,1,10,0.9,52.2,M,-14.1,M,,0000*4D
$GPGGA,232656.000,3037.0292,N,11421.2755,E,1,10,0.9,52.1,M,-14.1,M,,0000*41
$GPGGA,232657.000,3037.0206,N,11421.2815,E,1,10,0.9,51.9,M,-14.1,M,,0000*4D
$GPGGA,232658.000,3037.0121,N,11421.2874,E,1,10,0.9,51.8,M,-14.1,M,,0000*42
$GPGGA,232659.000,3037.0034,N,11421.2933,E,1,10,0.9,51.6,M,-14.1,M,,0000*4A
$GPGGA,232700.000,3036.9947,N,11421.2992,E,1,09,0.9,51.8,M,-14.1,M,,0000*4F
$GPGGA,232701.000,3036.9859,N,11421.3050,E,1,08,1.0,51.8,M,-14.1,M,,0000*4F
$GPGGA,232702.000,3036.9771,N,11421.3107,E,1,09,1.0,51.8,M,-14.1,M,,0000*4B
$GPGGA,232703.000,3036.9683,N,11421.3160,E,1,10,0.9,52.0,M,-14.1,M,,0000*4C
$GPGGA,232704.000,3036.9593,N,11421.3212,E,1,10,0.9,51.9,M,-14.1,M,,0000*45
$GPGGA,232705.000,3036.9502,N,11421.3264,E,1,10,0.9,51.3,M,-14.1,M,,0000*47
$GPGGA,232706.000,3036.9411,N,11421.3316,E,1,10,0.9,50.0,M,-14.1,M,,0000*41
$GPGGA,232707.000,3036.9320,N,11421.3368,E,1,10,0.9,49.0,M,-14.1,M,,0000*44
$GPGGA,232708.000,3036.9229,N,11421.3419,E,1,10,0.9,48.1,M,-14.1,M,,0000*42
$GPGGA,232709.000,3036.9139,N,11421.3471,E,1,10,0.9,47.2,M,-14.1,M,,0000*43
$GPGGA,232710.000,3036.9049,N,11421.3522,E,1,10,0.9,46.3,M,-14.1,M,,0000*4A
$GPGGA,232711.000,3036.8961,N,11421.3573,E,1,10,0.9,45.6,M,-14.1,M,,0000*4B
$GPGGA,232712.000,3036.8875,N,11421.3622,E,1,10,0.9,44.9,M,-14.1,M,,0000*45
$GPGGA,232713.000,3036.8789,N,11421.3672,E,1,10,0.9,44.1,M,-14.1,M,,0000*45
$GPGGA,232714.000,3036.8705,N,11421.3720,E,1,10,0.9,43.3,M,-14.1,M,,0000*45
$GPGGA,232715.000,3036.8621,N,11421.3769,E,1,10,0.9,42.5,M,-14.1,M,,0000*49
$GPGGA,232716.000,3036.8536,N,11421.3818,E,1,10,0.9,41.7,M,-14.1,M,,0000*47
$GPGGA,232717.000,3036.8451,N,11421.3867,E,1,10,0.9,40.9,M,-14.1,M,,0000*41
$GPGGA,232718.000,3036.8366,N,11421.3916,E,1,10,0.9,40.1,M,-14.1,M,,0000*42
$GPGGA,232719.000,3036.8280,N,11421.3964,E,1,10,0.9,39.3,M,-14.1,M,,0000*43
$GPGGA,232720.000,3036.8194,N,11421.4012,E,1,10,0.9,38.7,M,-14.1,M,,0000*45
$GPGGA,232721.000,3036.8105,N,11421.4059,E,1,10,0.9,38.3,M,-14.1,M,,0000*47
$GPGGA,232722.000,3036.8015,N,11421.4106,E,1,10,0.9,37.7,M,-14.1,M,,0000*44
$GPGGA,232723.000,3036.7925,N,11421.4155,E,1,10,0.9,37.1,M,-14.1,M,,0000*40
$GPGGA,232724.000,3036.7834,N,11421.4204,E,1,10,0.9,36.5,M,-14.1,M,,0000*44
$GPGGA,232725.000,3036.7743,N,11421.4254,E,1,10,0.9,35.9,M,-14.1,M,,0000*40
$GPGGA,232726.000,3036.7654,N,11421.4305,E,1,10,0.9,35.4,M,-14.1,M,,0000*4C
$GPGGA,232727.000,3036.7565,N,11421.4356,E,1,10,0.9,34.9,M,-14.1,M,,0000*46
$GPGGA,232728.000,3036.7478,N,11421.4405,E,1,10,0.9,34.4,M,-14.1,M,,0000*48
$GPGGA,232729.000,3036.7394,N,11421.4454,E,1,10,0.9,34.0,M,-14.1,M,,0000*4C
$GPGGA,232730.000,3036.7312,N,11421.4501,E,1,10,0.9,33.7,M,-14.1,M,,0000*4B
$GPGGA,232731.000,3036.7233,N,11421.4547,E,1,10,0.9,33.4,M,-14.1,M,,0000*49
$GPGGA,232732.000,3036.7156,N,11421.4591,E,1,10,0.9,33.1,M,-14.1,M,,0000*44
$GPGGA,232733.000,3036.7082,N,11421.4634,E,1,10,0.9,32.9,M,-14.1,M,,0000*48
$GPGGA,232734.000,3036.7011,N,11421.4674,E,1,10,0.9,32.8,M,-14.1,M,,0000*40
$GPGGA,232735.000,3036.6945,N,11421.4712,E,1,10,0.9,32.5,M,-14.1,M,,0000*44
$GPGGA,232736.000,3036.6885,N,11421.4746,E,1,10,0.9,32.1,M,-14.1,M,,0000*4F
$GPGGA,232737.000,3036.6832,N,11421.4777,E,1,10,0.9,31.9,M,-14.1,M,,0000*4B
$GPGGA,232738.000,3036.6787,N,11421.4803,E,1,10,0.9,31.5,M,-14.1,M,,0000*45
$GPGGA,232739.000,3036.6748,N,11421.4825,E,1,10,0.9,31.0,M,-14.1,M,,0000*46
$GPGGA,232740.000,3036.6711,N,11421.4847,E,1,10,0.9,30.6,M,-14.1,M,,0000*47
$GPGGA,232741.000,3036.6675,N,11421.4870,E,1,10,0.9,30.4,M,-14.1,M,,0000*43
$GPGGA,232742.000,3036.6636,N,11421.4893,E,1,10,0.9,30.4,M,-14.1,M,,0000*4A
$GPGGA,232743.000,3036.6594,N,11421.4917,E,1,10,0.9,30.2,M,-14.1,M,,0000*4B
$GPGGA,232744.000,3036.6553,N,11421.4942,E,1,10,0.9,30.0,M,-14.1,M,,0000*45
$GPGGA,232745.000,3036.6515,N,11421.4963,E,1,10,0.9,29.7,M,-14.1,M,,0000*4A
$GPGGA,232746.000,3036.6481,N,11421.4983,E,1,10,0.9,29.5,M,-14.1,M,,0000*49
$GPGGA,232747.000,3036.6448,N,11421.5002,E,1,10,0.9,29.6,M,-14.1,M,,0000*4F
$GPGGA,232748.000,3036.6417,N,11421.5020,E,1,10,0.9,29.3,M,-14.1,M,,0000*4F
$GPGGA,232749.000,3036.6389,N,11421.5036,E,1,10,0.9,29.3,M,-14.1,M,,0000*49
$GPGGA,232750.000,3036.6364,N,11421.5051,E,1,10,0.9,29.3,M,-14.1,M,,0000*43
$GPGGA,232751.000,3036.6340,N,11421.5065,E,1,10,0.9,29.2,M,-14.1,M,,0000*42
$GPGGA,232752.000,3036.6317,N,11421.5079,E,1,10,0.9,29.4,M,-14.1,M,,0000*48
$GPGGA,232753.000,3036.6294,N,11421.5093,E,1,10,0.9,29.4,M,-14.1,M,,0000*47
$GPGGA,232754.000,3036.6272,N,11421.5107,E,1,10,0.9,30.1,M,-14.1,M,,0000*49
$GPGGA,232755.000,3036.6249,N,11421.5119,E,1,10,0.9,30.4,M,-14.1,M,,0000*4A
$GPGGA,232756.000,3036.6227,N,11421.5132,E,1,10,0.9,30.5,M,-14.1,M,,0000*49
$GPGGA,232757.000,3036.6203,N,11421.5145,E,1,10,0.9,30.7,M,-14.1,M,,0000*4C
$GPGGA,232758.000,3036.6181,N,11421.5158,E,1,10,0.9,30.5,M,-14.1,M,,0000*44
$GPGGA,232759.000,3036.6159,N,11421.5171,E,1,10,0.9,30.5,M,-14.1,M,,0000*4B
$GPGGA,232800.000,3036.6138,N,11421.5184,E,1,10,0.9,30.9,M,-14.1,M,,0000*49
$GPGGA,232801.000,3036.6118,N,11421.5196,E,1,10,0.9,31.1,M,-14.1,M,,0000*40
$GPGGA,232802.000,3036.6097,N,11421.5208,E,1,10,0.9,31.4,M,-14.1,M,,0000*44
$GPGGA,232803.000,3036.6076,N,11421.5220,E,1,10,0.9,31.6,M,-14.1,M,,0000*42
$GPGGA,232804.000,3036.6053,N,11421.5233,E,1,10,0.9,31.7,M,-14.1,M,,0000*41
$GPGGA,232805.000,3036.6028,N,11421.5248,E,1,10,0.9,32.0,M,-14.1,M,,0000*44
$GPGGA,232806.000,3036.6001,N,11421.5263,E,1,10,0.9,32.2,M,-14.1,M,,0000*47
$GPGGA,232807.000,3036.5974,N,11421.5279,E,1,10,0.9,32.1,M,-14.1,M,,0000*46
$GPGGA,232808.000,3036.5947,N,11421.5294,E,1,10,0.9,32.0,M,-14.1,M,,0000*4B
$GPGGA,232809.000,3036.5921,N,11421.5310,E,1,10,0.9,32.4,M,-14.1,M,,0000*43
$GPGGA,232810.000,3036.5894,N,11421.5326,E,1,10,0.9,32.6,M,-14.1,M,,0000*43
$GPGGA,232811.000,3036.5866,N,11421.5343,E,1,09,1.0,32.9,M,-14.1,M,,0000*43
$GPGGA,232812.000,3036.5836,N,11421.5362,E,1,10,0.9,33.0,M,-14.1,M,,0000*4E
$GPGGA,232813.000,3036.5806,N,11421.5379,E,1,10,0.9,32.9,M,-14.1,M,,0000*4E
$GPGGA,232814.000,3036.5776,N,11421.5394,E,1,10,0.9,33.1,M,-14.1,M,,0000*4B
$GPGGA,232815.000,3036.5748,N,11421.5409,E,1,10,0.9,33.3,M,-14.1,M,,0000*46
$GPGGA,232816.000,3036.5721,N,11421.5423,E,1,10,0.9,33.3,M,-14.1,M,,0000*42
$GPGGA,232817.000,3036.5694,N,11421.5438,E,1,10,0.9,33.3,M,-14.1,M,,0000*46
$GPGGA,232818.000,3036.5669,N,11421.5453,E,1,10,0.9,33.2,M,-14.1,M,,0000*47
$GPGGA,232819.000,3036.5644,N,11421.5467,E,1,10,0.9,33.2,M,-14.1,M,,0000*4E
$GPGGA,232820.000,3036.5619,N,11421.5481,E,1,10,0.9,33.0,M,-14.1,M,,0000*46
$GPGGA,232821.000,3036.5594,N,11421.5496,E,1,10,0.9,33.1,M,-14.1,M,,0000*46
$GPGGA,232822.000,3036.5567,N,11421.5511,E,1,10,0.9,33.3,M,-14.1,M,,0000*45
$GPGGA,232823.000,3036.5541,N,11421.5528,E,1,10,0.9,33.5,M,-14.1,M,,0000*4C
$GPGGA,232824.000,3036.5516,N,11421.5544,E,1,10,0.9,33.7,M,-14.1,M,,0000*41
$GPGGA,232825.000,3036.5491,N,11421.5561,E,1,09,1.0,33.9,M,-14.1,M,,0000*47
$GPGGA,232826.000,3036.5467,N,11421.5577,E,1,08,1.2,33.8,M,-14.1,M,,0000*48
$GPGGA,232827.000,3036.5441,N,11421.5592,E,1,08,1.2,33.9,M,-14.1,M,,0000*47
$GPGGA,232828.000,3036.5412,N,11421.5609,E,1,09,1.0,33.9,M,-14.1,M,,0000*4C
$GPGGA,232829.000,3036.5380,N,11421.5628,E,1,10,0.9,34.1,M,-14.1,M,,0000*4D
$GPGGA,232830.000,3036.5344,N,11421.5648,E,1,10,0.9,34.3,M,-14.1,M,,0000*49
$GPGGA,232831.000,3036.5305,N,11421.5671,E,1,10,0.9,34.4,M,-14.1,M,,0000*40
$GPGGA,232832.000,3036.5263,N,11421.5696,E,1,10,0.9,34.6,M,-14.1,M,,0000*49
$GPGGA,232833.000,3036.5222,N,11421.5721,E,1,10,0.9,34.8,M,-14.1,M,,0000*4E
$GPGGA,232834.000,3036.5186,N,11421.5742,E,1,10,0.9,35.1,M,-14.1,M,,0000*49
$GPGGA,232835.000,3036.5153,N,11421.5761,E,1,10,0.9,35.3,M,-14.1,M,,0000*43
$GPGGA,232836.000,3036.5121,N,11421.5780,E,1,10,0.9,35.7,M,-14.1,M,,0000*4E
$GPGGA,232837.000,3036.5089,N,11421.5799,E,1,10,0.9,36.1,M,-14.1,M,,0000*41
$GPGGA,232838.000,3036.5056,N,11421.5820,E,1,10,0.9,35.9,M,-14.1,M,,0000*4A
$GPGGA,232839.000,3036.5022,N,11421.5839,E,1,09,1.0,35.6,M,-14.1,M,,0000*4F
$GPGGA,232840.000,3036.4988,N,11421.5859,E,1,09,1.0,35.0,M,-14.1,M,,0000*49
$GPGGA,232841.000,3036.4953,N,11421.5879,E,1,08,1.2,34.4,M,-14.1,M,,0000*4A
$GPGGA,232842.000,3036.4917,N,11421.5901,E,1,09,1.0,34.1,M,-14.1,M,,0000*41
$GPGGA,232843.000,3036.4880,N,11421.5917,E,1,10,0.9,34.4,M,-14.1,M,,0000*4D
$GPGGA,232844.000,3036.4842,N,11421.5936,E,1,10,0.9,34.4,M,-14.1,M,,0000*47
$GPGGA,232845.000,3036.4804,N,11421.5957,E,1,10,0.9,34.4,M,-14.1,M,,0000*43
$GPGGA,232846.000,3036.4767,N,11421.5977,E,1,10,0.9,34.9,M,-14.1,M,,0000*45
$GPGGA,232847.000,3036.4730,N,11421.5997,E,1,10,0.9,34.8,M,-14.1,M,,0000*49
$GPGGA,232848.000,3036.4695,N,11421.6019,E,1,10,0.9,34.1,M,-14.1,M,,0000*4D
$GPGGA,232849.000,3036.4659,N,11421.6041,E,1,08,1.2,33.6,M,-14.1,M,,0000*42
$GPGGA,232850.000,3036.4622,N,11421.6063,E,1,10,0.9,33.5,M,-14.1,M,,0000*46
$GPGGA,232851.000,3036.4582,N,11421.6087,E,1,10,0.9,33.7,M,-14.1,M,,0000*46
$GPGGA,232852.000,3036.4536,N,11421.6109,E,1,10,0.9,34.2,M,-14.1,M,,0000*4F
$GPGGA,232853.000,3036.4486,N,11421.6137,E,1,10,0.9,34.3,M,-14.1,M,,0000*48
$GPGGA,232854.000,3036.4433,N,11421.6173,E,1,09,1.0,34.1,M,-14.1,M,,0000*43
$GPGGA,232855.000,3036.4375,N,11421.6208,E,1,08,1.0,34.1,M,-14.1,M,,0000*49
$GPGGA,232856.000,3036.4317,N,11421.6247,E,1,10,0.9,34.4,M,-14.1,M,,0000*41
$GPGGA,232857.000,3036.4256,N,11421.6284,E,1,10,0.9,34.5,M,-14.1,M,,0000*4A
$GPGGA,232858.000,3036.4194,N,11421.6322,E,1,10,0.9,33.7,M,-14.1,M,,0000*40
$GPGGA,232859.000,3036.4131,N,11421.6358,E,1,09,1.0,33.5,M,-14.1,M,,0000*41
$GPGGA,232900.000,3036.4066,N,11421.6397,E,1,10,0.9,33.5,M,-14.1,M,,0000*4C
$GPGGA,232901.000,3036.3999,N,11421.6440,E,1,10,0.9,33.7,M,-14.1,M,,0000*4C
$GPGGA,232902.000,3036.3931,N,11421.6485,E,1,10,0.9,34.0,M,-14.1,M,,0000*44
$GPGGA,232903.000,3036.3861,N,11421.6532,E,1,10,0.9,34.0,M,-14.1,M,,0000*4C
$GPGGA,232904.000,3036.3789,N,11421.6584,E,1,10,0.9,34.6,M,-14.1,M,,0000*49
$GPGGA,232905.000,3036.3717,N,11421.6639,E,1,10,0.9,34.7,M,-14.1,M,,0000*4B
$GPGGA,232906.000,3036.3642,N,11421.6695,E,1,10,0.9,34.9,M,-14.1,M,,0000*41
$GPGGA,232907.000,3036.3568,N,11421.6752,E,1,10,0.9,35.1,M,-14.1,M,,0000*48
$GPGGA,232908.000,3036.3498,N,11421.6806,E,1,10,0.9,35.1,M,-14.1,M,,0000*47
$GPGGA,232909.000,3036.3436,N,11421.6854,E,1,10,0.9,35.0,M,-14.1,M,,0000*44
$GPGGA,232910.000,3036.3386,N,11421.6893,E,1,10,0.9,34.6,M,-14.1,M,,0000*4C
$GPGGA,232911.000,3036.3346,N,11421.6928,E,1,10,0.9,34.5,M,-14.1,M,,0000*43
$GPGGA,232912.000,3036.3310,N,11421.6958,E,1,10,0.9,34.7,M,-14.1,M,,0000*46
$GPGGA,232913.000,3036.3276,N,11421.6985,E,1,10,0.9,34.7,M,-14.1,M,,0000*46
$GPGGA,232914.000,3036.3242,N,11421.7014,E,1,10,0.9,35.1,M,-14.1,M,,0000*41
$GPGGA,232915.000,3036.3211,N,11421.7040,E,1,10,0.9,35.3,M,-14.1,M,,0000*45
$GPGGA,232916.000,3036.3181,N,11421.7066,E,1,10,0.9,35.5,M,-14.1,M,,0000*4E
$GPGGA,232917.000,3036.3153,N,11421.7090,E,1,10,0.9,35.4,M,-14.1,M,,0000*48
$GPGGA,232918.000,3036.3131,N,11421.7109,E,1,10,0.9,35.3,M,-14.1,M,,0000*45
$GPGGA,232919.000,3036.3112,N,11421.7124,E,1,10,0.9,35.4,M,-14.1,M,,0000*4D
$GPGGA,232920.000,3036.3095,N,11421.7137,E,1,10,0.9,35.5,M,-14.1,M,,0000*4A
$GPGGA,232921.000,3036.3080,N,11421.7150,E,1,10,0.9,35.6,M,-14.1,M,,0000*4D
$GPGGA,232922.000,3036.3064,N,11421.7163,E,1,10,0.9,35.7,M,-14.1,M,,0000*45
$GPGGA,232923.000,3036.3048,N,11421.7176,E,1,10,0.9,35.8,M,-14.1,M,,0000*41
$GPGGA,232924.000,3036.3032,N,11421.7190,E,1,10,0.9,35.7,M,-14.1,M,,0000*4C
$GPGGA,232925.000,3036.3012,N,11421.7207,E,1,10,0.9,35.8,M,-14.1,M,,0000*4D
$GPGGA,232926.000,3036.2990,N,11421.7225,E,1,10,0.9,35.8,M,-14.1,M,,0000*4C
$GPGGA,232927.000,3036.2963,N,11421.7247,E,1,10,0.9,35.8,M,-14.1,M,,0000*45
$GPGGA,232928.000,3036.2933,N,11421.7271,E,1,10,0.9,35.7,M,-14.1,M,,0000*45
$GPGGA,232929.000,3036.2901,N,11421.7297,E,1,10,0.9,35.8,M,-14.1,M,,0000*42
$GPGGA,232930.000,3036.2868,N,11421.7325,E,1,10,0.9,35.8,M,-14.1,M,,0000*4C
$GPGGA,232931.000,3036.2835,N,11421.7354,E,1,10,0.9,35.8,M,-14.1,M,,0000*43
$GPGGA,232932.000,3036.2800,N,11421.7383,E,1,10,0.9,35.8,M,-14.1,M,,0000*4C
$GPGGA,232933.000,3036.2763,N,11421.7415,E,1,10,0.9,35.7,M,-14.1,M,,0000*40
$GPGGA,232934.000,3036.2724,N,11421.7448,E,1,10,0.9,35.7,M,-14.1,M,,0000*4C
$GPGGA,232935.000,3036.2685,N,11421.7482,E,1,09,1.0,35.6,M,-14.1,M,,0000*40
$GPGGA,232936.000,3036.2644,N,11421.7517,E,1,09,1.0,35.6,M,-14.1,M,,0000*43
$GPGGA,232937.000,3036.2603,N,11421.7554,E,1,08,1.2,35.5,M,-14.1,M,,0000*46
$GPGGA,232938.000,3036.2560,N,11421.7592,E,1,09,1.0,35.4,M,-14.1,M,,0000*47
$GPGGA,232939.000,3036.2518,N,11421.7630,E,1,10,0.9,35.3,M,-14.1,M,,0000*45
$GPGGA,232940.000,3036.2476,N,11421.7667,E,1,10,0.9,35.3,M,-14.1,M,,0000*40
$GPGGA,232941.000,3036.2437,N,11421.7702,E,1,10,0.9,35.2,M,-14.1,M,,0000*47
$GPGGA,232942.000,3036.2399,N,11421.7734,E,1,10,0.9,35.1,M,-14.1,M,,0000*41
$GPGGA,232943.000,3036.2360,N,11421.7767,E,1,10,0.9,35.0,M,-14.1,M,,0000*41
$GPGGA,232944.000,3036.2320,N,11421.7800,E,1,08,1.2,34.8,M,-14.1,M,,0000*46
$GPGGA,232945.000,3036.2280,N,11421.7836,E,1,08,1.2,34.7,M,-14.1,M,,0000*46
$GPGGA,232946.000,3036.2240,N,11421.7871,E,1,10,0.9,34.6,M,-14.1,M,,0000*48
$GPGGA,232947.000,3036.2202,N,11421.7906,E,1,10,0.9,34.4,M,-14.1,M,,0000*4C
$GPGGA,232948.000,3036.2164,N,11421.7940,E,1,10,0.9,34.3,M,-14.1,M,,0000*45
$GPGGA,232949.000,3036.2128,N,11421.7972,E,1,10,0.9,34.1,M,-14.1,M,,0000*4F
$GPGGA,232950.000,3036.2093,N,11421.8001,E,1,10,0.9,34.1,M,-14.1,M,,0000*44
$GPGGA,232951.000,3036.2059,N,11421.8029,E,1,09,1.0,34.0,M,-14.1,M,,0000*48
$GPGGA,232952.000,3036.2026,N,11421.8057,E,1,09,1.0,33.6,M,-14.1,M,,0000*4B
$GPGGA,232953.000,3036.1992,N,11421.8084,E,1,09,1.0,33.5,M,-14.1,M,,0000*42
$GPGGA,232954.000,3036.1955,N,11421.8114,E,1,08,1.2,33.4,M,-14.1,M,,0000*44
$GPGGA,232955.000,3036.1916,N,11421.8146,E,1,09,1.0,33.3,M,-14.1,M,,0000*41
$GPGGA,232956.000,3036.1873,N,11421.8179,E,1,10,0.9,33.3,M,-14.1,M,,0000*4C
$GPGGA,232957.000,3036.1829,N,11421.8214,E,1,09,1.0,33.3,M,-14.1,M,,0000*4A
$GPGGA,232958.000,3036.1782,N,11421.8249,E,1,10,0.9,33.0,M,-14.1,M,,0000*40
$GPGGA,232959.000,3036.1735,N,11421.8286,E,1,10,0.9,32.7,M,-14.1,M,,0000*48
$GPGGA,233000.000,3036.1686,N,11421.8319,E,1,10,0.9,32.4,M,-14.1,M,,0000*41
$GPGGA,233001.000,3036.1638,N,11421.8352,E,1,09,1.0,32.1,M,-14.1,M,,0000*4F
$GPGGA,233002.000,3036.1590,N,11421.8386,E,1,10,0.9,32.0,M,-14.1,M,,0000*45
$GPGGA,233003.000,3036.1543,N,11421.8419,E,1,09,1.0,31.9,M,-14.1,M,,0000*41
$GPGGA,233004.000,3036.1496,N,11421.8449,E,1,09,1.0,32.0,M,-14.1,M,,0000*40
$GPGGA,233005.000,3036.1451,N,11421.8478,E,1,08,1.0,32.0,M,-14.1,M,,0000*49
$GPGGA,233006.000,3036.1405,N,11421.8505,E,1,10,0.9,31.9,M,-14.1,M,,0000*4B
$GPGGA,233007.000,3036.1359,N,11421.8532,E,1,09,1.0,31.8,M,-14.1,M,,0000*41
$GPGGA,233008.000,3036.1312,N,11421.8561,E,1,10,0.9,32.0,M,-14.1,M,,0000*4C
$GPGGA,233009.000,3036.1264,N,11421.8590,E,1,10,0.9,32.0,M,-14.1,M,,0000*43
$GPGGA,233010.000,3036.1214,N,11421.8618,E,1,10,0.9,32.0,M,-14.1,M,,0000*4F
$GPGGA,233011.000,3036.1162,N,11421.8647,E,1,10,0.9,31.8,M,-14.1,M,,0000*4D
$GPGGA,233012.000,3036.1109,N,11421.8677,E,1,10,0.9,31.4,M,-14.1,M,,0000*4C
$GPGGA,233013.000,3036.1056,N,11421.8705,E,1,10,0.9,31.2,M,-14.1,M,,0000*44
$GPGGA,233014.000,3036.1004,N,11421.8733,E,1,10,0.9,30.9,M,-14.1,M,,0000*4B
$GPGGA,233015.000,3036.0953,N,11421.8759,E,1,08,1.2,30.7,M,-14.1,M,,0000*41
$GPGGA,233016.000,3036.0903,N,11421.8785,E,1,10,0.9,30.5,M,-14.1,M,,0000*47
$GPGGA,233017.000,3036.0854,N,11421.8808,E,1,10,0.9,30.7,M,-14.1,M,,0000*4D
$GPGGA,233018.000,3036.0805,N,11421.8832,E,1,10,0.9,30.9,M,-14.1,M,,0000*41
$GPGGA,233019.000,3036.0757,N,11421.8857,E,1,10,0.9,31.0,M,-14.1,M,,0000*43
$GPGGA,233020.000,3036.0708,N,11421.8884,E,1,10,0.9,31.2,M,-14.1,M,,0000*4F
$GPGGA,233021.000,3036.0656,N,11421.8912,E,1,09,1.0,31.2,M,-14.1,M,,0000*4A
$GPGGA,233022.000,3036.0601,N,11421.8940,E,1,08,1.2,31.2,M,-14.1,M,,0000*4F
$GPGGA,233023.000,3036.0545,N,11421.8970,E,1,10,0.9,31.1,M,-14.1,M,,0000*4E
$GPGGA,233024.000,3036.0487,N,11421.9002,E,1,10,0.9,30.9,M,-14.1,M,,0000*42
$GPGGA,233025.000,3036.0428,N,11421.9033,E,1,10,0.9,30.9,M,-14.1,M,,0000*44
$GPGGA,233026.000,3036.0367,N,11421.9065,E,1,10,0.9,30.7,M,-14.1,M,,0000*46
$GPGGA,233027.000,3036.0305,N,11421.9098,E,1,10,0.9,30.4,M,-14.1,M,,0000*42
$GPGGA,233028.000,3036.0241,N,11421.9132,E,1,09,1.0,30.5,M,-14.1,M,,0000*4C
$GPGGA,233029.000,3036.0177,N,11421.9166,E,1,10,0.9,30.5,M,-14.1,M,,0000*4A
$GPGGA,233030.000,3036.0111,N,11421.9202,E,1,10,0.9,30.5,M,-14.1,M,,0000*43
$GPGGA,233031.000,3036.0045,N,11421.9238,E,1,10,0.9,30.5,M,-14.1,M,,0000*4B
$GPGGA,233032.000,3035.9979,N,11421.9274,E,1,10,0.9,30.4,M,-14.1,M,,0000*4D
$GPGGA,233033.000,3035.9915,N,11421.9310,E,1,10,0.9,30.2,M,-14.1,M,,0000*43
$GPGGA,233034.000,3035.9852,N,11421.9344,E,1,10,0.9,30.1,M,-14.1,M,,0000*44
$GPGGA,233035.000,3035.9792,N,11421.9375,E,1,10,0.9,29.9,M,-14.1,M,,0000*44
$GPGGA,233036.000,3035.9734,N,11421.9406,E,1,10,0.9,29.8,M,-14.1,M,,0000*49
$GPGGA,233037.000,3035.9678,N,11421.9435,E,1,10,0.9,29.7,M,-14.1,M,,0000*4E
$GPGGA,233038.000,3035.9624,N,11421.9464,E,1,10,0.9,29.8,M,-14.1,M,,0000*43
$GPGGA,233039.000,3035.9570,N,11421.9492,E,1,10,0.9,29.8,M,-14.1,M,,0000*49
$GPGGA,233040.000,3035.9515,N,11421.9522,E,1,10,0.9,29.8,M,-14.1,M,,0000*4E
$GPGGA,233041.000,3035.9456,N,11421.9552,E,1,10,0.9,30.0,M,-14.1,M,,0000*4E
$GPGGA,233042.000,3035.9396,N,11421.9584,E,1,10,0.9,30.4,M,-14.1,M,,0000*49
$GPGGA,233043.000,3035.9334,N,11421.9617,E,1,10,0.9,30.7,M,-14.1,M,,0000*4A
$GPGGA,233044.000,3035.9269,N,11421.9651,E,1,10,0.9,30.8,M,-14.1,M,,0000*49
$GPGGA,233045.000,3035.9203,N,11421.9686,E,1,09,1.0,30.8,M,-14.1,M,,0000*4E
$GPGGA,233046.000,3035.9137,N,11421.9721,E,1,10,0.9,30.9,M,-14.1,M,,0000*44
$GPGGA,233047.000,3035.9070,N,11421.9756,E,1,09,1.0,30.9,M,-14.1,M,,0000*47
$GPGGA,233048.000,3035.9005,N,11421.9790,E,1,10,0.9,30.9,M,-14.1,M,,0000*40
$GPGGA,233049.000,3035.8944,N,11421.9820,E,1,11,0.8,31.3,M,-14.1,M,,0000*43
$GPGGA,233050.000,3035.8889,N,11421.9848,E,1,11,0.8,31.3,M,-14.1,M,,0000*45
$GPGGA,233051.000,3035.8838,N,11421.9875,E,1,11,0.8,31.3,M,-14.1,M,,0000*40
$GPGGA,233052.000,3035.8790,N,11421.9900,E,1,11,0.8,31.2,M,-14.1,M,,0000*4C
$GPGGA,233053.000,3035.8744,N,11421.9923,E,1,11,0.8,31.2,M,-14.1,M,,0000*45
$GPGGA,233054.000,3035.8700,N,11421.9946,E,1,09,1.0,31.1,M,-14.1,M,,0000*42
$GPGGA,233055.000,3035.8658,N,11421.9968,E,1,11,0.8,31.0,M,-14.1,M,,0000*42
$GPGGA,233056.000,3035.8617,N,11421.9990,E,1,11,0.8,30.9,M,-14.1,M,,0000*45
$GPGGA,233057.000,3035.8578,N,11422.0010,E,1,09,1.0,30.8,M,-14.1,M,,0000*44
$GPGGA,233058.000,3035.8540,N,11422.0031,E,1,10,0.9,30.8,M,-14.1,M,,0000*43
$GPGGA,233059.000,3035.8501,N,11422.0053,E,1,11,0.8,30.7,M,-14.1,M,,0000*4C
$GPGGA,233100.000,3035.8461,N,11422.0075,E,1,11,0.8,30.6,M,-14.1,M,,0000*43
$GPGGA,233101.000,3035.8422,N,11422.0096,E,1,11,0.8,30.5,M,-14.1,M,,0000*4B
$GPGGA,233102.000,3035.8382,N,11422.0117,E,1,10,0.9,30.6,M,-14.1,M,,0000*4E
$GPGGA,233103.000,3035.8341,N,11422.0138,E,1,09,1.0,30.8,M,-14.1,M,,0000*43
$GPGGA,233104.000,3035.8300,N,11422.0159,E,1,10,0.9,30.9,M,-14.1,M,,0000*47
$GPGGA,233105.000,3035.8264,N,11422.0177,E,1,10,0.9,31.0,M,-14.1,M,,0000*41
$GPGGA,233106.000,3035.8234,N,11422.0192,E,1,11,0.8,31.0,M,-14.1,M,,0000*4C
$GPGGA,233107.000,3035.8208,N,11422.0203,E,1,09,1.0,31.1,M,-14.1,M,,0000*48
$GPGGA,233108.000,3035.8189,N,11422.0213,E,1,11,0.8,31.2,M,-14.1,M,,0000*4F
$GPGGA,233109.000,3035.8175,N,11422.0220,E,1,11,0.8,31.3,M,-14.1,M,,0000*4C
$GPGGA,233110.000,3035.8163,N,11422.0223,E,1,11,0.8,31.7,M,-14.1,M,,0000*44
$GPGGA,233111.000,3035.8155,N,11422.0229,E,1,11,0.8,31.7,M,-14.1,M,,0000*4A
$GPGGA,233112.000,3035.8148,N,11422.0234,E,1,11,0.8,31.5,M,-14.1,M,,0000*4B
$GPGGA,233113.000,3035.8139,N,11422.0240,E,1,11,0.8,31.5,M,-14.1,M,,0000*4F
$GPGGA,233114.000,3035.8130,N,11422.0246,E,1,11,0.8,31.4,M,-14.1,M,,0000*46
$GPGGA,233115.000,3035.8123,N,11422.0250,E,1,11,0.8,31.4,M,-14.1,M,,0000*42
$GPGGA,233116.000,3035.8117,N,11422.0254,E,1,11,0.8,31.3,M,-14.1,M,,0000*45
$GPGGA,233117.000,3035.8111,N,11422.0258,E,1,11,0.8,31.2,M,-14.1,M,,0000*4F
$GPGGA,233118.000,3035.8104,N,11422.0262,E,1,11,0.8,31.1,M,-14.1,M,,0000*4E
$GPGGA,233119.000,3035.8095,N,11422.0268,E,1,11,0.8,31.0,M,-14.1,M,,0000*4D
$GPGGA,233120.000,3035.8083,N,11422.0275,E,1,11,0.8,31.0,M,-14.1,M,,0000*4C
$GPGGA,233121.000,3035.8067,N,11422.0283,E,1,11,0.8,30.9,M,-14.1,M,,0000*46
$GPGGA,233122.000,3035.8048,N,11422.0293,E,1,11,0.8,30.8,M,-14.1,M,,0000*48
$GPGGA,233123.000,3035.8026,N,11422.0304,E,1,11,0.8,30.7,M,-14.1,M,,0000*41
$GPGGA,233124.000,3035.8002,N,11422.0317,E,1,11,0.8,30.6,M,-14.1,M,,0000*43
$GPGGA,233125.000,3035.7975,N,11422.0330,E,1,11,0.8,30.5,M,-14.1,M,,0000*42
$GPGGA,233126.000,3035.7946,N,11422.0345,E,1,11,0.8,30.5,M,-14.1,M,,0000*43
$GPGGA,233127.000,3035.7915,N,11422.0361,E,1,11,0.8,30.4,M,-14.1,M,,0000*43
$GPGGA,233128.000,3035.7884,N,11422.0377,E,1,11,0.8,30.4,M,-14.1,M,,0000*42
$GPGGA,233129.000,3035.7853,N,11422.0393,E,1,10,0.9,30.3,M,-14.1,M,,0000*44
$GPGGA,233130.000,3035.7823,N,11422.0408,E,1,11,0.8,30.1,M,-14.1,M,,0000*4C
$GPGGA,233131.000,3035.7796,N,11422.0422,E,1,11,0.8,30.1,M,-14.1,M,,0000*44
$GPGGA,233132.000,3035.7770,N,11422.0436,E,1,11,0.8,30.2,M,-14.1,M,,0000*49
$GPGGA,233133.000,3035.7743,N,11422.0450,E,1,11,0.8,30.3,M,-14.1,M,,0000*49
$GPGGA,233134.000,3035.7715,N,11422.0466,E,1,11,0.8,30.3,M,-14.1,M,,0000*48
$GPGGA,233135.000,3035.7682,N,11422.0483,E,1,11,0.8,30.4,M,-14.1,M,,0000*4A
$GPGGA,233136.000,3035.7646,N,11422.0501,E,1,11,0.8,30.3,M,-14.1,M,,0000*4D
$GPGGA,233137.000,3035.7608,N,11422.0521,E,1,11,0.8,30.3,M,-14.1,M,,0000*44
$GPGGA,233138.000,3035.7567,N,11422.0542,E,1,11,0.8,30.2,M,-14.1,M,,0000*45
$GPGGA,233139.000,3035.7525,N,11422.0564,E,1,11,0.8,30.2,M,-14.1,M,,0000*46
$GPGGA,233140.000,3035.7480,N,11422.0588,E,1,11,0.8,30.2,M,-14.1,M,,0000*44
$GPGGA,233141.000,3035.7433,N,11422.0613,E,1,11,0.8,30.3,M,-14.1,M,,0000*4D
$GPGGA,233142.000,3035.7385,N,11422.0638,E,1,11,0.8,30.4,M,-14.1,M,,0000*4A
$GPGGA,233143.000,3035.7340,N,11422.0662,E,1,11,0.8,30.4,M,-14.1,M,,0000*4D
$GPGGA,233144.000,3035.7300,N,11422.0682,E,1,11,0.8,30.3,M,-14.1,M,,0000*47
$GPGGA,233145.000,3035.7264,N,11422.0700,E,1,10,0.9,30.3,M,-14.1,M,,0000*4E
$GPGGA,233146.000,3035.7230,N,11422.0718,E,1,10,0.9,30.3,M,-14.1,M,,0000*45
$GPGGA,233147.000,3035.7198,N,11422.0735,E,1,10,0.9,30.3,M,-14.1,M,,0000*4A
$GPGGA,233148.000,3035.7167,N,11422.0752,E,1,10,0.9,30.4,M,-14.1,M,,0000*43
$GPGGA,233149.000,3035.7137,N,11422.0768,E,1,10,0.9,30.4,M,-14.1,M,,0000*4E
$GPGGA,233150.000,3035.7107,N,11422.0784,E,1,10,0.9,30.4,M,-14.1,M,,0000*47
$GPGGA,233151.000,3035.7076,N,11422.0800,E,1,10,0.9,30.5,M,-14.1,M,,0000*43
$GPGGA,233152.000,3035.7043,N,11422.0818,E,1,10,0.9,30.6,M,-14.1,M,,0000*4C
$GPGGA,233153.000,3035.7010,N,11422.0836,E,1,10,0.9,30.7,M,-14.1,M,,0000*46
$GPGGA,233154.000,3035.6976,N,11422.0855,E,1,10,0.9,30.8,M,-14.1,M,,0000*43
$GPGGA,233155.000,3035.6940,N,11422.0874,E,1,09,0.9,30.8,M,-14.1,M,,0000*4C
$GPGGA,233156.000,3035.6902,N,11422.0894,E,1,10,0.9,31.0,M,-14.1,M,,0000*46
$GPGGA,233157.000,3035.6864,N,11422.0914,E,1,10,0.9,31.0,M,-14.1,M,,0000*4F
$GPGGA,233158.000,3035.6827,N,11422.0933,E,1,10,0.9,31.1,M,-14.1,M,,0000*43
$GPGGA,233159.000,3035.6790,N,11422.0953,E,1,10,0.9,31.2,M,-14.1,M,,0000*44
